empresa;nome;logradouro;bairro;cidade;estado;regiao;cep;populacao;latitude;longitude;renda_domiciliar_per_capita;cod_cidade;data_extracao
petz;petz abelardo bueno;Avenida Embaixador Abelardo Bueno;Barra da Tijuca;Rio de Janeiro;RJ;Sudeste;22775-040;6.729.894;-22.9727518094;-43.3884886319;2490;4557;08/10/2025
petz;petz aclimacao;Rua Muniz de Sousa;Aclimação;São Paulo;SP;Sudeste;01534-000;11.895.578;-23.5696900041;-46.636;2662;50308;08/10/2025
petz;petz afonso pena;Avenida Bandeirantes;Amambaí;Campo Grande;MS;Centro-Oeste;79005-671;954.537;-20.4697105;-54.6201211;2169;2704;08/10/2025
petz;petz agamenon;Avenida Governador Agamenon Magalhães;Boa Vista;Recife;PE;Nordeste;50050-290;1.587.707;-8.0559795;-34.8953473;1453;11606;08/10/2025
petz;petz aguas claras;Avenida Sibipiruna;Sul (Águas Claras);Brasília;DF;Centro-Oeste;71928-720;2.982.818;-15.885750017;-48.0398915003;3444;108;08/10/2025
petz;petz alameda santos;Alameda Santos;Cerqueira César;São Paulo;SP;Sudeste;01419-001;11.895.578;-23.5326099937;-46.636;2662;50308;08/10/2025
petz;petz aldeota;Avenida Barão de Studart;Aldeota;Fortaleza;CE;Nordeste;60120-001;2.574.412;-3.7357094;-38.5069693;1225;4400;08/10/2025
petz;petz alphaville;Avenida Alphaville;Dezoito do Forte Empresarial/Alphaville.;Barueri;SP;Sudeste;06472-010;330.339;-23.5243200024;-46.8905258909;2662;5708;08/10/2025
petz;petz alto da boa vista;Avenida Adolfo Pinheiro;Santo Amaro;São Paulo;SP;Sudeste;04734-004;11.895.578;-23.8617400321;-46.2937601861;2662;50308;08/10/2025
petz;petz americana;Avenida Paulista;Vila Nossa Senhora de Fátima;Americana;SP;Sudeste;13478-580;246.655;-22.7376643;-47.3178178;2662;1608;08/10/2025
petz;petz ana costa;Avenida Ana Costa;Gonzaga;Santos;SP;Sudeste;11060-001;429.567;-23.954249995;-46.334;2662;48500;08/10/2025
petz;petz analia franco;Avenida Regente Feijó;Vila Regente Feijó;São Paulo;SP;Sudeste;03342-000;11.895.578;-23.7020800204;-46.8040764713;2662;50308;08/10/2025
petz;petz angelica;Avenida Angélica;Consolação;São Paulo;SP;Sudeste;01227-200;11.895.578;-23.5556500053;-46.636;2662;50308;08/10/2025
petz;petz anhaia mello;Avenida Professor Luiz Ignácio Anhaia Mello;Vila Graciosa;São Paulo;SP;Sudeste;03295-000;11.895.578;-23.6981200203;-46.4722432506;2662;50308;08/10/2025
petz;petz aracaju;Avenida Ministro Geraldo Barreto Sobral 215;Jardins;Aracaju;SE;Nordeste;49026-900;628.849;-10.9438929;-37.0593452;1473;308;08/10/2025
petz;petz aracatuba;Avenida Brasília;Jardim Nova Yorque;Araçatuba;SP;Sudeste;16018-000;207.775;-21.2028539;-50.4536793;2662;2804;08/10/2025
petz;petz araraquara;Avenida Padre Francisco Sales Colturato;Centro;Araraquara;SP;Sudeste;14802-000;252.318;-21.7848272;-48.1786486;2662;3208;08/10/2025
petz;petz aruja;Rua Tomi Saburo Yamamoto;Jardim das Cerejeiras;Arujá;SP;Sudeste;07432-575;89.943;-23.3950099976;-46.3220786898;2662;3901;08/10/2025
petz;petz assai anchieta;Rua Garcia Lorca;Paulicéia;São Bernardo do Campo;SP;Sudeste;09695-000;840.499;-23.6995800017;-46.5710936695;2662;48708;08/10/2025
petz;petz assai colinas;Avenida Jorge Zarur;Vila Ema;São José dos Campos;SP;Sudeste;12243-081;724.756;-23.2102831;-45.8969547;2662;49904;08/10/2025
petz;petz assai maracana;Rua José Higino;Tijuca;Rio de Janeiro;RJ;Sudeste;20520-201;6.729.894;-22.9325728;-43.2410248;2490;4557;08/10/2025
petz;petz assai penha;Avenida São Miguel;Vila Marieta;São Paulo;SP;Sudeste;03620-000;11.895.578;-23.3633199789;-46.8374561407;2662;50308;08/10/2025
petz;petz assis chateaubriand;Avenida Assis Chateaubriand;Setor Oeste;Goiânia;GO;Centro-Oeste;74130-015;1.494.599;-16.6848554;-49.2714702;2098;8707;08/10/2025
petz;petz augusta;Rua Augusta;Consolação;São Paulo;SP;Sudeste;01305-000;11.895.578;-23.5367499961;-46.636;2662;50308;08/10/2025
petz;petz avenida das americas recreio;Rua César Lattes;Barra da Tijuca;Rio de Janeiro;RJ;Sudeste;22793-329;6.729.894;-23.0023912;-43.4245654;2490;4557;08/10/2025
petz;petz avenida do contorno;Avenida do Contorno;Santa Efigênia;Belo Horizonte;MG;Sudeste;30110-017;2.416.339;-19.9139617;-43.9323353;2001;6200;08/10/2025
petz;petz avenida dos estados;Avenida dos Estados;Tamanduateí 8;Santo André;SP;Sudeste;09270-270;778.711;-23.694960006;-46.5041977288;2662;47809;08/10/2025
petz;petz avenida goias;Avenida Goiás;Santo Antônio;São Caetano do Sul;SP;Sudeste;09521-310;172.109;-23.623;-46.5496247537;2662;48807;08/10/2025
petz;petz avenida interlagos;Avenida Interlagos;Jardim Marajoara;São Paulo;SP;Sudeste;04660-002;11.895.578;-23.8534600338;-46.3027923299;2662;50308;08/10/2025
petz;petz avenida milao;Avenida Milão;Jardim Europa;Goiânia;GO;Centro-Oeste;74325-030;1.494.599;-16.7092282;-49.313446;2098;8707;08/10/2025
petz;petz balneario camboriu;Avenida do Estado Dalmo Vieira;Estados;Balneário Camboriú;SC;Sul;88339-060;148.758;-26.9737199957;-48.635;2601;2008;08/10/2025
petz;petz bandeirantes;Avenida dos Bandeirantes 2040;Vila Olímpia;São Paulo;SP;Sudeste;04553-902;11.895.578;-23.6192800094;-46.7137550031;2662;50308;08/10/2025
petz;petz bangu shopping;Rua Fonseca;Bangu;Rio de Janeiro;RJ;Sudeste;21820-005;6.729.894;-22.8819709;-43.465515;2490;4557;08/10/2025
petz;petz barra americas;Avenida das Américas;Barra da Tijuca;Rio de Janeiro;RJ;Sudeste;22793-080;6.729.894;-23.0141759;-43.4664789;2490;4557;08/10/2025
petz;petz barreiro;Avenida Sinfrônio Brochado;Barreiro;Belo Horizonte;MG;Sudeste;30640-000;2.416.339;-19.9768558;-44.0195832;2001;6200;08/10/2025
petz;petz bauru;Rua Rubens Pagani;Jardim Estoril IV;Bauru;SP;Sudeste;17016-210;391.740;-22.314459;-49.0586951;2662;6003;08/10/2025
petz;petz belem;Avenida Nazaré;Nazaré;Belém;PA;Norte;66035-445;1.398.531;-1.454061;-48.4812248;1344;1402;08/10/2025
petz;petz belford roxo;Avenida Prefeito Jorge Júlio Costa dos Santos;Centro;Belford Roxo;RJ;Sudeste;26130-010;518.263;-22.7645391;-43.3996264;2490;456;08/10/2025
petz;petz bento goncalves;r. fortaleza, 362;botafogo;bento goncalves;RS;Sul;95700-000;127.775;;;2608;2105;08/10/2025
petz;petz bestcenter jacarei;Rua Barão de Jacareí;Centro;Jacareí;SP;Sudeste;12308-000;249.968;-23.2987827;-45.9662542;2662;24402;08/10/2025
petz;petz betim;Avenida Juiz Marco Túlio Isaac;Jardim das Alterosas 1ª Seção;Betim;MG;Sudeste;32671-072;429.236;-19.9673078;-44.2011904;2001;6705;08/10/2025
petz;petz blumenau;Rua São Paulo;Itoupava Seca;Blumenau;SC;Sul;89030-001;380.597;-26.919;-49.0579250549;2601;2404;08/10/2025
petz;petz boa viagem;Avenida Boa Viagem;Boa Viagem;Recife;PE;Nordeste;51020-000;1.587.707;-8.1099616;-34.8891379;1453;11606;08/10/2025
petz;petz bosque maia;Avenida Paulo Faccini;Macedo;Guarulhos;SP;Sudeste;07111-000;1.345.364;-23.4836100077;-46.533;2662;18800;08/10/2025
petz;petz botafogo;Rua General Polidoro;Botafogo;Rio de Janeiro;RJ;Sudeste;22280-004;6.729.894;-22.9511149;-43.1809269;2490;4557;08/10/2025
petz;petz botucatu;Avenida Doutor Vital Brasil;Vila São Lúcio;Botucatu;SP;Sudeste;18603-193;150.442;-22.8841808;-48.4441654;2662;7506;08/10/2025
petz;petz brasilia asa norte;Setor STN;Asa Norte;Brasília;DF;Centro-Oeste;70770-100;2.982.818;-15.7333775;-47.8970566;3444;108;08/10/2025
petz;petz brasilia epia;Setor de Postos e Motéis Sul I;Setor de Postos e Motéis Sul (Núcleo Bandeirante);Brasília;DF;Centro-Oeste;71738-010;2.982.818;-15.8711088;-47.9709785;3444;108;08/10/2025
petz;petz brasilia jardim botanico;Quadra 1 Lote E;Setor Habitacional Jardim Botânico;Brasília;DF;Centro-Oeste;71681-025;2.982.818;-15.9064363;-47.8624914;3444;108;08/10/2025
petz;petz brasilia sia;Trecho SIA Trecho 17 Rua 03;Zona Industrial (Guará);Brasília;DF;Centro-Oeste;71200-207;2.982.818;-15.7786295;-47.9408608;3444;108;08/10/2025
petz;petz brasilia w3 norte;Quadra EQS 414/415;Asa Sul;Brasília;DF;Centro-Oeste;70297-400;2.982.818;-15.7906787664;-47.8930069733;3444;108;08/10/2025
petz;petz brusque;Rua Gustavo Schlosser;Centro II;Brusque;SC;Sul;88353-020;151.949;-27.0929599984;-48.9123385317;2601;2909;08/10/2025
petz;petz bueno t63;Avenida T 63;Setor Bueno;Goiânia;GO;Centro-Oeste;74230-105;1.494.599;-16.7004399;-49.276539;2098;8707;08/10/2025
petz;petz butanta;Avenida Professor Francisco Morato;Butantã;São Paulo;SP;Sudeste;05512-200;11.895.578;-23.9588500473;-46.1878288093;2662;50308;08/10/2025
petz;petz cambui;Avenida Doutor Moraes Salles;Jardim Guarani;Campinas;SP;Sudeste;13100-201;1.185.977;-22.9060289;-47.0461989;2662;9502;08/10/2025
petz;petz campinas norte sul;Avenida José de Souza Campos;Nova Campinas;Campinas;SP;Sudeste;13092-123;1.185.977;-22.9040083;-47.0400589;2662;9502;08/10/2025
petz;petz campo grande;Avenida Afonso Pena;Chácara Cachoeira;Campo Grande;MS;Centro-Oeste;79040-010;954.537;-20.4643395;-54.579342;2169;2704;08/10/2025
petz;petz campo grande rio;Rua João Barbosa de Morais;Campo Grande;Rio de Janeiro;RJ;Sudeste;23040-125;6.729.894;-22.9230245;-43.5495864;2490;4557;08/10/2025
petz;petz canoas;Avenida Doutor Sezefredo Azambuja Vieira;Marechal Rondon;Canoas;RS;Sul;92020-020;359.554;-29.9175499937;-51.184519194;2608;4606;08/10/2025
petz;petz caraguatatuba;Rua Vereador Antônio Cruz Arouca;Indaiá;Caraguatatuba;SP;Sudeste;11665-100;141.084;-23.6267599;-45.4234501;2662;10500;08/10/2025
petz;petz carapicuiba;Avenida Inocêncio Seráfico;Vila Silva Ribeiro;Carapicuíba;SP;Sudeste;06380-021;398.462;-23.5378500086;-46.836;2662;10609;08/10/2025
petz;petz carlos berta;Rua Antônio Carlos Berta;Jardim Europa;Porto Alegre;RS;Sul;91340-020;1.389.322;-30.033;-51.279379889;2608;14902;08/10/2025
petz;petz carlos luz;Avenida Presidente Carlos Luz;Caiçaras;Belo Horizonte;MG;Sudeste;31230-010;2.416.339;-19.9012987;-43.9667394;2001;6200;08/10/2025
petz;petz carrefour anchieta;Via Anchieta, 3398;Vila Vermelha;São Paulo;SP;Sudeste;04246-900;11.895.578;-23.4902199938;-46.5729713249;2662;50308;08/10/2025
petz;petz carrefour imigrantes;Rua Alfredo de Salles Oliveira Netto;Vila do Bosque;São Paulo;SP;Sudeste;04147-020;11.895.578;-23.3060799704;-46.636;2662;50308;08/10/2025
petz;petz carrefour manilha;Rua Oliveira Botelho;Neves (Neves);São Gonçalo;RJ;Sudeste;24425-005;960.652;-22.8544152;-43.0977581;2490;4904;08/10/2025
petz;petz carrefour ribeirao shopping;Avenida Coronel Fernando Ferreira Leite;Jardim Califórnia;Ribeirão Preto;SP;Sudeste;14026-020;728.400;-21.2041684;-47.8255301;2662;43402;08/10/2025
petz;petz carrefour sao caetano;Avenida do Estado;Prosperidade;São Caetano do Sul;SP;Sudeste;09550-400;172.109;-23.6198499977;-46.5544381091;2662;48807;08/10/2025
petz;petz carrefour tiete;Avenida Morvan Dias de Figueiredo 3177;Vila Guilherme;São Paulo;SP;Sudeste;02063-902;11.895.578;-23.548;-46.6583840199;2662;50308;08/10/2025
petz;petz cascavel;Avenida Brasil;Centro;Cascavel;PR;Sul;85812-000;364.104;-24.956;-53.4629414822;2482;4808;08/10/2025
petz;petz castelo;av. pres. tancredo neves, 3005;paqueta;belo horizonte;MG;Sudeste;30840-535;2.416.339;;;2001;6200;08/10/2025
petz;petz catuai londrina;Rodovia Mabio Gonçalves Palhano;Gleba Fazenda Palhano;Londrina;PR;Sul;86055-585;577.318;-23.31;-51.1395782472;2482;13700;08/10/2025
petz;petz cavalhada;Avenida Eduardo Prado;Cavalhada;Porto Alegre;RS;Sul;91751-000;1.389.322;-30.033;-51.1583731786;2608;14902;08/10/2025
petz;petz caxias do sul;Avenida Ruben Bento Alves;Cinqüentenário;Caxias do Sul;RS;Sul;95012-393;479.256;-29.1745107;-51.207829;2608;5108;08/10/2025
petz;petz ceilandia;Quadra Q 1;Setor de Desenvolvimento Econômico (Taguatinga);Brasília;DF;Centro-Oeste;72145-100;2.982.818;-15.8096826;-48.0897558;3444;108;08/10/2025
petz;petz center minas;Avenida Pastor Anselmo Silvestre;Dom Joaquim;Belo Horizonte;MG;Sudeste;31170-678;2.416.339;-19.8790939;-43.9177407;2001;6200;08/10/2025
petz;petz center shopping uberlandia;Avenida João Naves de Ávila;Tibery;Uberlândia;MG;Sudeste;38405-140;754.954;-18.9011105;-48.2511641;2001;70206;08/10/2025
petz;petz cerro cora;Rua Cerro Corá;Vila Romana;São Paulo;SP;Sudeste;05061-300;11.895.578;-23.1801699588;-47.037243297;2662;50308;08/10/2025
petz;petz chapeco;Avenida Fernando Machado - D;Centro;Chapecó;SC;Sul;89802-111;275.959;-27.0947399993;-52.6194153421;2601;4202;08/10/2025
petz;petz cidade jardim;Avenida dos Tajurás;Cidade Jardim;São Paulo;SP;Sudeste;05670-000;11.895.578;-23.1187899568;-46.1678010127;2662;50308;08/10/2025
petz;petz congonhas;Avenida Moreira Guimarães;Indianópolis;São Paulo;SP;Sudeste;04074-030;11.895.578;-23.7813700242;-46.3814309126;2662;50308;08/10/2025
petz;petz contagem;Avenida Babita Camargos;Cidade Industrial;Contagem;MG;Sudeste;32210-180;649.975;-19.9511138;-44.0258233;2001;18601;08/10/2025
petz;petz contagem joao cesar;Avenida João César de Oliveira;Beatriz;Contagem;MG;Sudeste;32040-000;649.975;-19.9249966;-44.0609614;2001;18601;08/10/2025
petz;petz continente;Rua Martinho Boschetti;Picadas do Sul;São José;SC;Sul;88106-110;289.949;-27.6186000056;-48.628;2601;16602;08/10/2025
petz;petz copacabana;Avenida Nossa Senhora de Copacabana;Copacabana;Rio de Janeiro;RJ;Sudeste;22070-012;6.729.894;-22.9697777;-43.1868592;2490;4557;08/10/2025
petz;petz cotia;Rodovia Raposo Tavares;Lageadinho;Cotia;SP;Sudeste;06709-015;287.004;-23.5966199947;-46.9270538309;2662;13009;08/10/2025
petz;petz criciuma;Avenida Centenário;Centro;Criciúma;SC;Sul;88801-001;225.281;-28.6803626913;-49.3671297486;2601;4608;08/10/2025
petz;petz cristiano machado;Rua José Vieira Muniz;Floramar;Belo Horizonte;MG;Sudeste;31742-005;2.416.339;-19.8307058;-43.9388814;2001;6200;08/10/2025
petz;petz diadema;Avenida Fábio Eduardo Ramos Esquivel;Centro;Diadema;SP;Sudeste;09920-578;404.118;-23.6886100049;-46.6258500946;2662;13801;08/10/2025
petz;petz diario de noticias;Avenida Diário de Notícias;Cristal;Porto Alegre;RS;Sul;90810-080;1.389.322;-30.0504600069;-51.2098322109;2608;14902;08/10/2025
petz;petz divinopolis;Rua Minas Gerais;Centro;Divinópolis;MG;Sudeste;35500-007;242.328;-20.1451261;-44.8916447;2001;22306;08/10/2025
petz;petz djalma batista;Avenida Djalma Batista;Chapada;Manaus;AM;Norte;69050-010;2.279.686;-3.0967957;-60.0288373;1238;2603;08/10/2025
petz;petz dom pedro;Avenida Guilherme Campos 500;Jardim Santa Genebra;Campinas;SP;Sudeste;13087-901;1.185.977;-22.9099384;-47.0626332;2662;9502;08/10/2025
petz;petz dourados;Avenida Marcelino Pires;Jardim Caramuru;Dourados;MS;Centro-Oeste;79830-000;260.640;-22.223561;-54.8125486;2169;3702;08/10/2025
petz;petz edgar faco;Avenida General Edgar Facó;Vila Pereira Cerca;São Paulo;SP;Sudeste;02924-400;11.895.578;-23.548;-46.757050399;2662;50308;08/10/2025
petz;petz enseada;Avenida Santa Maria;Enseada;Guarujá;SP;Sudeste;11440-110;294.973;-23.9869736;-46.2463403;2662;18701;08/10/2025
petz;petz estacao goiania;Avenida Goiás;Setor Central;Goiânia;GO;Centro-Oeste;74010-010;1.494.599;-16.6716683;-49.2562665;2098;8707;08/10/2025
petz;petz fernando correa;Avenida Fernando Correa da Costa;Pico do Amor;Cuiabá;MT;Centro-Oeste;78065-000;682.932;-15.6014109;-56.0978917;2276;3403;08/10/2025
petz;petz ferraz de vasconcelos;Avenida Brasil;Vila Romanópolis;Ferraz de Vasconcelos;SP;Sudeste;08529-310;185.622;-23.536859992;-46.3644841588;2662;15707;08/10/2025
petz;petz florianopolis;Rodovia José Carlos Daux;Saco Grande;Florianópolis;SC;Sul;88032-005;576.361;-27.597;-48.5435160762;2601;5407;08/10/2025
petz;petz foz do iguacu;Rua Alfredo Nunes do Nascimento;Jardim Polo Centro;Foz do Iguaçu;PR;Sul;85863-754;295.500;-25.541339996;-54.5953817609;2482;8304;08/10/2025
petz;petz franca;Rua Professora Suzana Ribeiro Sandoval;Vila Champagnat;Franca;SP;Sudeste;14400-190;364.331;-20.5494525;-47.4037878;2662;16200;08/10/2025
petz;petz gama leste;Quadra Quadra 1;Setor Industrial (Gama);Brasília;DF;Centro-Oeste;72445-010;2.982.818;-16.0136169;-48.059985;3444;108;08/10/2025
petz;petz gastao vidigal;Avenida Doutor Gastão Vidigal;Vila Leopoldina;São Paulo;SP;Sudeste;05314-000;11.895.578;-23.939320047;-47.0628671078;2662;50308;08/10/2025
petz;petz gilberto salomao;SHIS QI 5 Bloco F;Setor de Habitações Individuais Sul;Brasília;DF;Centro-Oeste;71615-560;2.982.818;-15.7942287;-47.8821658;3444;108;08/10/2025
petz;petz giovanni gronchi;Avenida Giovanni Gronchi;Morumbi;São Paulo;SP;Sudeste;05651-002;11.895.578;-23.1205899546;-47.1022354799;2662;50308;08/10/2025
petz;petz giovanni pirelli;Rua Giovanni Battista Pirelli;Vila Homero Thon;Santo André;SP;Sudeste;09111-340;778.711;-23.6733600058;-46.5482192956;2662;47809;08/10/2025
petz;petz governador valadares;Avenida Brasil;Centro;Governador Valadares;MG;Sudeste;35010-070;266.649;-18.8695636;-41.9543122;2001;27701;08/10/2025
petz;petz gravatai;Avenida Dorival Cândido Luz de Oliveira;COHAB C;Gravataí;RS;Sul;94030-000;275.294;-29.9415699933;-50.9891956511;2608;9209;08/10/2025
petz;petz guaruja;Avenida Adhemar de Barros;Vila Santa Rosa;Guarujá;SP;Sudeste;11430-003;294.973;-23.9908312;-46.2809014;2662;18701;08/10/2025
petz;petz guarulhos;Rua Guarulhos;Gopoúva;Guarulhos;SP;Sudeste;07022-020;1.345.364;-23.463;-46.5312339725;2662;18800;08/10/2025
petz;petz guarulhos pimentas;Estrada Presidente Juscelino Kubitschek de Oliveira;Jardim Albertina;Guarulhos;SP;Sudeste;07252-000;1.345.364;-23.5301400125;-46.6061916931;2662;18800;08/10/2025
petz;petz hiper sales aracaju;Avenida Augusto Franco;Ponto Novo;Aracaju;SE;Nordeste;49097-670;628.849;-10.9349279;-37.075392;1473;308;08/10/2025
petz;petz hortolandia;Avenida Santana;Parque Ortolândia;Hortolândia;SP;Sudeste;13184-210;247.331;-22.8828875;-47.2308623;2662;19071;08/10/2025
petz;petz iguatemi esplanada;Avenida Gisele Constantino;Parque Bela Vista;Votorantim;SP;Sudeste;18110-650;132.849;-23.5458282;-47.4670805;2662;57006;08/10/2025
petz;petz ilha do governador;Estrada do Galeão;Jardim Carioca;Rio de Janeiro;RJ;Sudeste;21931-524;6.729.894;-22.8070469;-43.197542;2490;4557;08/10/2025
petz;petz indaiatuba;Alameda Filtros Mann;Jardim Tropical;Indaiatuba;SP;Sudeste;13344-580;267.796;-23.1153736;-47.2182994;2662;20509;08/10/2025
petz;petz independencia shopping;Avenida Presidente Itamar Franco;São Mateus;Juiz de Fora;MG;Sudeste;36025-290;565.764;-21.7722581;-43.353661;2001;36702;08/10/2025
petz;petz ipatinga;Rua Cláudio Moura;Novo Cruzeiro;Ipatinga;MG;Sudeste;35164-840;235.445;-19.4750305;-42.5374761;2001;31307;08/10/2025
petz;petz ipiranga;Avenida Presidente Tancredo Neves;Vila Nancy;São Paulo;SP;Sudeste;04287-010;11.895.578;-23.2887099681;-46.9188436387;2662;50308;08/10/2025
petz;petz itaim;Rua Bandeira Paulista;Itaim Bibi;São Paulo;SP;Sudeste;04532-003;11.895.578;-23.8387900308;-46.9532050611;2662;50308;08/10/2025
petz;petz itajai;Avenida Vereador Abrahão João Francisco;Ressacada;Itajaí;SC;Sul;88307-302;287.289;-26.9148400041;-48.6696704504;2601;8203;08/10/2025
petz;petz itanhaem;av. rui barbosa, 540;centro;Itanhaém;SP;Sudeste;11740-000;117.435;-24.1817994;-46.7850334;2662;22109;08/10/2025
petz;petz itapecerica;Estrada de Itapecerica;Vila das Belezas;São Paulo;SP;Sudeste;05835-003;11.895.578;-23.1005199541;-47.1241286159;2662;50308;08/10/2025
petz;petz itapetininga;Avenida Peixoto Gomide;Centro;Itapetininga;SP;Sudeste;18200-160;163.774;-23.5870635;-48.0480516;2662;22307;08/10/2025
petz;petz itatiba;Avenida Marechal Castelo Branco;Jardim da Luz;Itatiba;SP;Sudeste;13255-350;126.403;-23.0244035;-46.8402896;2662;23404;08/10/2025
petz;petz itu;Avenida Doutor Otaviano Pereira Mendes;Liberdade;Itu;SP;Sudeste;13301-000;174.561;-23.2588;-47.2989196;2662;23909;08/10/2025
petz;petz jaboatao dos guararapes;Avenida Ayrton Senna da Silva;Piedade;Jaboatão dos Guararapes;PE;Nordeste;54420-700;683.285;-8.1801557;-34.9203383;1453;7901;08/10/2025
petz;petz jacu pessego;Avenida Jacu-Pêssego;Itaquera;São Paulo;SP;Sudeste;08215-115;11.895.578;-23.5358836;-46.4523686;2662;50308;08/10/2025
petz;petz jaguare;Avenida Corifeu de Azevedo Marques;Vila Lageado;São Paulo;SP;Sudeste;05339-003;11.895.578;-23.9419300478;-46.2062858021;2662;50308;08/10/2025
petz;petz jardim botanico;Rua Jardim Botânico;Jardim Botânico;Rio de Janeiro;RJ;Sudeste;22470-051;6.729.894;-22.9068467;-43.1728965;2490;4557;08/10/2025
petz;petz jardim icarai;Rua Doutor Paulo César;Santa Rosa;Niterói;RJ;Sudeste;24240-000;516.720;-22.8987588;-43.0985184;2490;3302;08/10/2025
petz;petz jau;Avenida Doutor Quinzinho;Chácara Peccioli;Jaú;SP;Sudeste;17210-110;137.323;-22.2992648;-48.5446869;2662;25300;08/10/2025
petz;petz joao firmino;Avenida João Firmino;Assunção;São Bernardo do Campo;SP;Sudeste;09810-250;840.499;-23.7116400034;-46.5842638563;2662;48708;08/10/2025
petz;petz joao pessoa;Avenida Senador Ruy Carneiro;Manaíra;João Pessoa;PB;Nordeste;58039-180;888.679;-7.1121567;-34.828319;1401;7507;08/10/2025
petz;petz joinville;Alameda Rolf Colin;América;Joinville;SC;Sul;89204-070;654.888;-26.3011199952;-48.846;2601;9102;08/10/2025
petz;petz juiz de fora;Avenida Barão do Rio Branco;Alto dos Passos;Juiz de Fora;MG;Sudeste;36026-500;565.764;-21.776524;-43.3473578;2001;36702;08/10/2025
petz;petz jundiai;Avenida Antônio Frederico Ozanan;Vila de Vito;Jundiaí;SP;Sudeste;13215-010;460.313;-23.1719746;-46.8883514;2662;25904;08/10/2025
petz;petz jundiai anhanguera;Avenida Doutor Adilson Rodrigues;Jardim das Samambaias;Jundiaí;SP;Sudeste;13211-685;460.313;-23.1920386436;-46.9079545957;2662;25904;08/10/2025
petz;petz lauzane paulista;Avenida Direitos Humanos;Imirim;São Paulo;SP;Sudeste;02475-001;11.895.578;-23.6281900094;-46.7234743771;2662;50308;08/10/2025
petz;petz limao;Avenida Otaviano Alves de Lima;Casa Verde Baixa;São Paulo;SP;Sudeste;02501-000;11.895.578;-23.5145404;-46.6646472;2662;50308;08/10/2025
petz;petz linha verde;Avenida Caviúna;Bairro Alto;Curitiba;PR;Sul;82840-123;1.829.225;-25.4929800105;-49.3449501394;2482;6902;08/10/2025
petz;petz litoral plaza;Avenida Ayrton Senna da Silva;Sítio do Campo;Praia Grande;SP;Sudeste;11726-000;365.577;-23.99403;-46.4061432;2662;41000;08/10/2025
petz;petz londrina tiradentes;Avenida Tiradentes;Rodocentro;Londrina;PR;Sul;86071-000;577.318;-23.3385300098;-51.131934327;2482;13700;08/10/2025
petz;petz manuel gaya;Rua Manuel Gaya;Vila Nova Mazzei;São Paulo;SP;Sudeste;02313-000;11.895.578;-23.6060500137;-46.5726767902;2662;50308;08/10/2025
petz;petz maraponga;Avenida Godofredo Maciel;Maraponga;Fortaleza;CE;Nordeste;60710-684;2.574.412;-3.7930657;-38.5658738;1225;4400;08/10/2025
petz;petz marechal tito;Avenida Marechal Tito;Itaim Paulista;São Paulo;SP;Sudeste;08115-100;11.895.578;-23.0675799511;-46.636;2662;50308;08/10/2025
petz;petz marginal tiete 24h;Rua Doutor Miguel Paulo Capalbo;Pari;São Paulo;SP;Sudeste;03035-040;11.895.578;-23.6722900173;-46.7715803788;2662;50308;08/10/2025
petz;petz maringa;Avenida Paraná;Zona 07;Maringá;PR;Sul;87020-085;425.983;-23.425;-51.9421386933;2482;15200;08/10/2025
petz;petz mateus leme;Rua Mateus Leme;Bom Retiro;Curitiba;PR;Sul;80520-174;1.829.225;-25.4078125;-49.271846;2482;6902;08/10/2025
petz;petz mauro ramos;Avenida Mauro Ramos;Centro;Florianópolis;SC;Sul;88020-302;576.361;-27.5947499957;-48.5464611447;2601;5407;08/10/2025
petz;petz miguel sutil;Avenida Miguel Sutil;Jardim Mariana;Cuiabá;MT;Centro-Oeste;78040-790;682.932;-15.5790011;-56.1097477;2276;3403;08/10/2025
petz;petz mogi das cruzes;Avenida Francisco Rodrigues Filho;Botujuru;Mogi das Cruzes;SP;Sudeste;08840-000;468.120;-23.523;-46.2109687036;2662;30607;08/10/2025
petz;petz mogi guacu;Avenida Mogi Mirim;Areião;Mogi Guaçu;SP;Sudeste;13844-110;159.735;-22.379356;-46.9420796;2662;30706;08/10/2025
petz;petz moinhos de vento;Rua Quintino Bocaiúva;Rio Branco;Porto Alegre;RS;Sul;90440-051;1.389.322;-30.0223799939;-51.217732992;2608;14902;08/10/2025
petz;petz mooca;Avenida Paes de Barros;Mooca;São Paulo;SP;Sudeste;03114-001;11.895.578;-23.6774200191;-46.777176384;2662;50308;08/10/2025
petz;petz mooca plaza shopping;Rua Capitão Pacheco e Chaves;Vila Prudente;São Paulo;SP;Sudeste;03126-000;11.895.578;-23.678230015;-46.493940041;2662;50308;08/10/2025
petz;petz morumbi;Rua Aureliano Guimarães;Vila Andrade;São Paulo;SP;Sudeste;05727-160;11.895.578;-23.9813500506;-46.636;2662;50308;08/10/2025
petz;petz nacoes unidas;Avenida das Nações Unidas;Vila Almeida;São Paulo;SP;Sudeste;04795-100;11.895.578;-23.2268799659;-46.9862902068;2662;50308;08/10/2025
petz;petz natal;Avenida Senador Salgado Filho;Lagoa Nova;Natal;RN;Nordeste;59075-000;785.368;-5.8259362;-35.2099611;1616;8102;08/10/2025
petz;petz natal zona norte;Avenida Doutor João Medeiros Filho;Potengi;Natal;RN;Nordeste;59108-550;785.368;-5.7511801;-35.2551617;1616;8102;08/10/2025
petz;petz nordestina;Avenida Nordestina;Cidade Nova São Miguel;São Paulo;SP;Sudeste;08042-117;11.895.578;-23.548;-46.5018922575;2662;50308;08/10/2025
petz;petz norte sul plaza;Avenida Presidente Ernesto Geisel;Jardim Jockey Club;Campo Grande;MS;Centro-Oeste;79080-105;954.537;-20.4697105;-54.6201211;2169;2704;08/10/2025
petz;petz nossa senhora do carmo;Avenida Nossa Senhora do Carmo;Carmo;Belo Horizonte;MG;Sudeste;30330-000;2.416.339;-19.9436545;-43.9323522;2001;6200;08/10/2025
petz;petz nova iguacu;Avenida Abílio Augusto Távora;Jardim Alvorada;Nova Iguaçu;RJ;Sudeste;26265-090;843.046;-22.7820278;-43.5390469;2490;3500;08/10/2025
petz;petz novo hamburgo;Rua Castro Alves;Rio Branco;Novo Hamburgo;RS;Sul;93310-270;235.879;-29.6783600085;-51.1305856359;2608;13409;08/10/2025
petz;petz olinda;Rua Carmelita Soares Muniz de Araújo;Casa Caiada;Olinda;PE;Nordeste;53130-645;365.402;-7.9940002;-34.8400759;1453;9600;08/10/2025
petz;petz osasco;Avenida dos Autonomistas;Centro;Osasco;SP;Sudeste;06090-010;756.952;-23.5234599921;-46.8024054244;2662;34401;08/10/2025
petz;petz pacaembu;Praça Charles Miller;Pacaembu;São Paulo;SP;Sudeste;01234-010;11.895.578;-23.5398999919;-46.636;2662;50308;08/10/2025
petz;petz palmas;Quadra 101 Sul Avenida Joaquim Teotônio Segurado;Plano Diretor Sul;Palmas;TO;Norte;77015-002;323.625;-10.1902356;-48.3338925;1737;21000;08/10/2025
petz;petz pampulha;Avenida Professor Magalhães Penido;Aeroporto;Belo Horizonte;MG;Sudeste;31270-652;2.416.339;-19.8524132;-43.95509;2001;6200;08/10/2025
petz;petz pao de acucar jabaquara;Avenida Engenheiro Armando de Arruda Pereira;Jabaquara;São Paulo;SP;Sudeste;04308-001;11.895.578;-23.548;-46.3504074528;2662;50308;08/10/2025
petz;petz parada de taipas;Avenida Raimundo Pereira de Magalhães;Jardim Marilu;São Paulo;SP;Sudeste;02989-095;11.895.578;-23.548;-46.5062119762;2662;50308;08/10/2025
petz;petz parkshopping brasilia;SMAS;Zona Industrial (Guará);Brasília;DF;Centro-Oeste;71219-900;2.982.818;-15.8332054737;-47.9561142456;3444;108;08/10/2025
petz;petz parnamirim;Avenida Dezessete de Agosto;Parnamirim;Recife;PE;Nordeste;52060-590;1.587.707;-8.0334239;-34.9103805;1453;11606;08/10/2025
petz;petz parque flamboyant;Avenida Deputado Jamel Cecílio;Jardim Goiás;Goiânia;GO;Centro-Oeste;74810-100;1.494.599;-16.7062994;-49.2382611;2098;8707;08/10/2025
petz;petz parque shopping bahia;Avenida Santos Dumont;Centro;Lauro de Freitas;BA;Nordeste;42702-400;217.960;-12.8982314;-38.3314455;1366;19207;08/10/2025
petz;petz parque shopping maceio;Avenida Comendador Gustavo Paiva;Cruz das Almas;Maceió;AL;Nordeste;57038-000;994.464;-9.6294255;-35.6997298;1331;4302;08/10/2025
petz;petz passeio das aguas;Avenida Perimetral Norte;Fazenda Caveiras;Goiânia;GO;Centro-Oeste;74445-360;1.494.599;-16.6313049729;-49.2774114112;2098;8707;08/10/2025
petz;petz pelotas;Avenida Ferreira Viana;Areal;Pelotas;RS;Sul;96085-000;336.131;-31.772;-52.3312491227;2608;14407;08/10/2025
petz;petz pereira barreto;Rua Thales dos Santos Freire;Baeta Neves;São Bernardo do Campo;SP;Sudeste;09751-020;840.499;-23.6839199915;-46.576007925;2662;48708;08/10/2025
petz;petz pindamonhangaba;Avenida Doutor Jorge Tibiriçá;Chácara da Galega;Pindamonhangaba;SP;Sudeste;12422-050;172.027;-22.9251224;-45.4616987;2662;38006;08/10/2025
petz;petz piracicaba;Avenida Centenário;São Dimas;Piracicaba;SP;Sudeste;13416-000;438.827;-22.7103065;-47.6402638;2662;38709;08/10/2025
petz;petz pituba;Avenida Manoel Dias da Silva;Pituba;Salvador;BA;Nordeste;41830-001;2.568.928;-13.0078744;-38.4631582;1366;27408;08/10/2025
petz;petz plaza avenida shopping;Avenida José Munia;Jardim Redentor;São José do Rio Preto;SP;Sudeste;15085-350;501.597;-20.8458300049;-49.379;2662;49805;08/10/2025
petz;petz pocos de caldas;Avenida João Pinheiro;Centro;Poços de Caldas;MG;Sudeste;37701-387;171.533;-21.7844858;-46.5922018;2001;51800;08/10/2025
petz;petz pompeia;Avenida Francisco Matarazzo;Água Branca;São Paulo;SP;Sudeste;05001-200;11.895.578;-23.1855699588;-46.2406472328;2662;50308;08/10/2025
petz;petz ponta verde;Avenida Professor Sandoval Arroxelas;Ponta Verde;Maceió;AL;Nordeste;57035-230;994.464;-9.6588449;-35.7042189;1331;4302;08/10/2025
petz;petz porto velho shopping;Avenida Prefeito Chiquilito Erse;Flodoaldo Pontes Pinto;Porto Velho;RO;Norte;76820-408;514.873;-8.7484671;-63.8729199;1717;205;08/10/2025
petz;petz praia grande;av. presidente kennedy, 2900;guilhermina;praia grande;SP;Sudeste;11600-000;365.577;;;2662;41000;08/10/2025
petz;petz presidente kennedy;Avenida Sargento Hermínio Sampaio;Presidente Kennedy;Fortaleza;CE;Nordeste;60355-503;2.574.412;-3.7299849;-38.5716667;1225;4400;08/10/2025
petz;petz presidente prudente;Rua Barão do Rio Branco;Centro;Presidente Prudente;SP;Sudeste;19010-000;234.083;-22.121126;-51.393006;2662;41406;08/10/2025
petz;petz protasio alves;Avenida Protásio Alves;Petrópolis;Porto Alegre;RS;Sul;91310-000;1.389.322;-30.033;-51.1824913472;2608;14902;08/10/2025
petz;petz radial leste;Avenida Alcântara Machado;Brás;São Paulo;SP;Sudeste;03102-007;11.895.578;-23.510559996;-46.6768410107;2662;50308;08/10/2025
petz;petz raja gabaglia;Avenida Raja Gabaglia;Santa Lúcia;Belo Horizonte;MG;Sudeste;30360-670;2.416.339;-19.9621872;-43.947033;2001;6200;08/10/2025
petz;petz ribeirao independencia;Avenida Independência;Jardim Sumaré;Ribeirão Preto;SP;Sudeste;14025-393;728.400;-21.1876768;-47.8069268;2662;43402;08/10/2025
petz;petz ribeirao presidente vargas;Avenida Presidente Vargas;Jardim Santa Ângela;Ribeirão Preto;SP;Sudeste;14020-525;728.400;-21.1704008;-47.8103238;2662;43402;08/10/2025
petz;petz ricardo jafet;Avenida Doutor Ricardo Jafet;Ipiranga;São Paulo;SP;Sudeste;04260-000;11.895.578;-23.548;-46.3557089288;2662;50308;08/10/2025
petz;petz rio claro;Avenida Presidente Kennedy;Estádio;Rio Claro;SP;Sudeste;13501-270;208.857;-22.4234127;-47.5625382;2662;43907;08/10/2025
petz;petz rio grande;Avenida Presidente Vargas;Vila Junção;Rio Grande;RS;Sul;96202-188;198.958;-32.0346399957;-52.0994246715;2608;15602;08/10/2025
petz;petz riomar;Avenida Herculano Bandeira;Pina;Recife;PE;Nordeste;51110-131;1.587.707;-8.0941077;-34.8855697;1453;11606;08/10/2025
petz;petz rio verde;Avenida Presidente Vargas;Jardim Presidente;Rio Verde;GO;Centro-Oeste;75908-420;238.025;-17.8037892;-50.944611;2098;18805;08/10/2025
petz;petz rita maria;Rua Henrique Valgas;Centro;Florianópolis;SC;Sul;88010-220;576.361;-27.596639995;-48.5485937783;2601;5407;08/10/2025
petz;petz roberto freire;Rua Leôncio Etelvino de Medeiros;Capim Macio;Natal;RN;Nordeste;59078-570;785.368;-5.8521242;-35.203595;1616;8102;08/10/2025
petz;petz ruben bento alves;av. rubem bento alves, 3483;universitario;caxias do sul;RS;Sul;95032-440;479.256;;;2608;5108;08/10/2025
petz;petz salvador bonoco;Avenida Mário Leal Ferreira;Brotas;Salvador;BA;Nordeste;40285-600;2.568.928;-12.9857613;-38.4998158;1366;27408;08/10/2025
petz;petz salvador paralela;Avenida Luís Viana Filho;Imbuí;Salvador;BA;Nordeste;41720-200;2.568.928;-12.9683501;-38.4411764;1366;27408;08/10/2025
petz;petz samambaia do sul;Quadra Quadra 302;Samambaia Sul (Samambaia);Brasília;DF;Centro-Oeste;72300-630;2.982.818;-15.889003;-48.107767;3444;108;08/10/2025
petz;petz santa barbara doeste;Avenida Corifeu Azevedo Marques;Loteamento Colina Santa Bárbara;Santa Bárbara D'Oeste;SP;Sudeste;13450-088;189.338;-22.7584972;-47.4098806;2662;45803;08/10/2025
petz;petz santa cecilia;Avenida General Olímpio da Silveira;Santa Cecília;São Paulo;SP;Sudeste;01150-000;11.895.578;-23.542239996;-46.636;2662;50308;08/10/2025
petz;petz santa maria;Avenida Hélvio Basso;Nossa Senhora Medianeira;Santa Maria;RS;Sul;97070-805;282.244;-29.6941700055;-53.807;2608;16907;08/10/2025
petz;petz santo andre;Avenida Ramiro Colleoni;Centro;Santo André;SP;Sudeste;09040-160;778.711;-23.6659800058;-46.5401617791;2662;47809;08/10/2025
petz;petz santo andre dom pedro;Avenida Dom Pedro II;Jardim;Santo André;SP;Sudeste;09080-110;778.711;-23.664;-46.5455662108;2662;47809;08/10/2025
petz;petz santos dumont;Avenida Santos Dumont;Cocó;Fortaleza;CE;Nordeste;60192-018;2.574.412;-3.7465795;-38.4797835;1225;4400;08/10/2025
petz;petz santos macuco;Rua Doutor Manoel Tourinho;Macuco;Santos;SP;Sudeste;11015-031;429.567;-23.9528844;-46.3183032;2662;48500;08/10/2025
petz;petz sao bernardo;Avenida Rotary;Centro;São Bernardo do Campo;SP;Sudeste;09721-000;840.499;-23.694;-46.5571372016;2662;48708;08/10/2025
petz;petz sao carlos;Avenida Francisco Pereira Lopes;Parque Santa Mônica;São Carlos;SP;Sudeste;13561-250;265.294;-22.0051411;-47.9020416;2662;48906;08/10/2025
petz;petz sao jose do rio preto;Avenida Presidente Juscelino Kubitschek de Oliveira;Jardim Maracanã;São José do Rio Preto;SP;Sudeste;15092-175;501.597;-20.811761;-49.3762272;2662;49805;08/10/2025
petz;petz sao leopoldo;Avenida Getúlio Vargas;Fião;São Leopoldo;RS;Sul;93020-566;225.669;-29.7750206;-51.1547076;2608;18705;08/10/2025
petz;petz sao luis;Avenida Daniel de La Touche;Cohama;São Luís;MA;Nordeste;65074-115;1.088.057;-2.5137864;-44.2449287;1077;11300;08/10/2025
petz;petz sao miguel;Avenida São Miguel;Vila Norma;São Paulo;SP;Sudeste;08070-001;11.895.578;-23.548;-46.1188114288;2662;50308;08/10/2025
petz;petz sao vicente;Avenida Antônio Emmerick;Vila Cascatinha;São Vicente;SP;Sudeste;11390-001;338.407;-23.9609574;-46.3769929;2662;51009;08/10/2025
petz;petz seminario;Avenida Nossa Senhora Aparecida;Seminário;Curitiba;PR;Sul;80440-000;1.829.225;-25.428;-49.2638318291;2482;6902;08/10/2025
petz;petz serra;Avenida Eldes Scherrer Souza;Parque Residencial Laranjeiras;Serra;ES;Sudeste;29165-680;572.274;-20.1944911;-40.2565549;2111;5002;08/10/2025
petz;petz sete lagoas;Avenida Raquel Teixeira Viana;Canaã;Sete Lagoas;MG;Sudeste;35700-293;237.931;-19.4668329;-44.2544129;2001;67202;08/10/2025
petz;petz shopping centervale;Avenida Deputado Benedito Matarazzo 9403;Jardim Paulista;São José dos Campos;SP;Sudeste;12215-900;724.756;-23.223701;-45.9009074;2662;49904;08/10/2025
petz;petz shopping golden square;Avenida Kennedy;Jardim do Mar;São Bernardo do Campo;SP;Sudeste;09726-252;840.499;-23.7028200023;-46.5553680712;2662;48708;08/10/2025
petz;petz shopping grande rio;r. maria soares sendas, 111;parque barreto;sao joao de meriti;RJ;Sudeste;25575-825;466.536;;;2490;5109;08/10/2025
petz;petz shopping grand plaza;Avenida Industrial;Campestre;Santo André;SP;Sudeste;09080-510;778.711;-23.664;-46.5459592592;2662;47809;08/10/2025
petz;petz shopping itaguacu;Rua Gerôncio Thives;Barreiros;São José;SC;Sul;88117-292;289.949;-27.5843617;-48.6120995;2601;16602;08/10/2025
petz;petz shopping jockey plaza;Rua Konrad Adenauer;Tarumã;Curitiba;PR;Sul;82821-020;1.829.225;-25.428;-49.2010498647;2482;6902;08/10/2025
petz;petz shopping maua;Avenida Governador Mário Covas Júnior;Centro;Mauá;SP;Sudeste;09390-040;429.380;-23.6667372;-46.4598263;2662;29401;08/10/2025
petz;petz shopping pantanal;Avenida G;Jardim Aclimação;Cuiabá;MT;Centro-Oeste;78050-250;682.932;-15.5880554;-56.0760854;2276;3403;08/10/2025
petz;petz shopping sul valparaiso;Quadra 1;Parque Esplanada III;Valparaíso de Goiás;GO;Centro-Oeste;72876-902;213.506;-16.0775373;-47.9787391;2098;21858;08/10/2025
petz;petz silva jardim;Rodovia BR-116;Tarumã;Curitiba;PR;Sul;82590-300;1.829.225;-25.3525799923;-49.273;2482;6902;08/10/2025
petz;petz silviano brandao;Avenida Silviano Brandão;Horto;Belo Horizonte;MG;Sudeste;31015-015;2.416.339;-19.909275;-43.9180412;2001;6200;08/10/2025
petz;petz sorocaba;Praça Dom Tadeu Strunck;Centro;Sorocaba;SP;Sudeste;18035-095;757.459;-23.5076903;-47.4523587;2662;52205;08/10/2025
petz;petz sorocaba tauste;Avenida General Carneiro;Vila Lucy;Sorocaba;SP;Sudeste;18043-003;757.459;-23.5043243;-47.4750024;2662;52205;08/10/2025
petz;petz sumare;Avenida da Amizade;Parque Jatobá (Nova Veneza);Sumaré;SP;Sudeste;13175-646;289.787;-22.8166383;-47.2446664;2662;52403;08/10/2025
petz;petz suzano;Rua Sete de Setembro 555;Parque Suzano;Suzano;SP;Sudeste;08673-900;318.765;-23.543;-46.3056987194;2662;52502;08/10/2025
petz;petz taboao da serra;Rua do Tesouro;Parque Santos Dumont;Taboão da Serra;SP;Sudeste;06754-190;11.895.578;-23.602;-46.7539821659;2662;50308;08/10/2025
petz;petz taguatinga;Quadra QS 1 Rua 212;Areal (Águas Claras);Brasília;DF;Centro-Oeste;71950-550;2.982.818;-15.8532553;-48.0344484;3444;108;08/10/2025
petz;petz tambore;Alameda Araguaia;Alphaville Industrial;Barueri;SP;Sudeste;06455-000;330.339;-23.5220700085;-46.876;2662;5708;08/10/2025
petz;petz tatui;Rua São Bento;Centro;Tatuí;SP;Sudeste;18270-820;128.560;-23.3506728;-47.8424272;2662;54003;08/10/2025
petz;petz tauste campinas;Avenida dos Imbés;Alphaville Dom Pedro;Campinas;SP;Sudeste;13097-172;1.185.977;-22.9099384;-47.0626332;2662;9502;08/10/2025
petz;petz teodoro sampaio;Rua Teodoro Sampaio;Pinheiros;São Paulo;SP;Sudeste;05406-100;11.895.578;-23.9500300465;-46.636;2662;50308;08/10/2025
petz;petz teotonio vilela;Avenida Senador Teotônio Vilela;Jardim São Rafael;São Paulo;SP;Sudeste;04864-001;11.895.578;-23.8930600401;-46.2595951048;2662;50308;08/10/2025
petz;petz teresina;Avenida João XXIII;Jóquei;Teresina;PI;Nordeste;64049-010;902.644;-5.0781871;-42.74991;1350;11001;08/10/2025
petz;petz torquato tapajos;av. torquato tapajos, 313;flores;manaus;AM;Norte;69048-660;2.279.686;;;1238;2603;08/10/2025
petz;petz torres;Avenida Comendador Franco;Guabirotuba;Curitiba;PR;Sul;81520-000;1.829.225;-25.4654400084;-49.273;2482;6902;08/10/2025
petz;petz trimais;Avenida Tucuruvi;Tucuruvi;São Paulo;SP;Sudeste;02305-002;11.895.578;-23.4916599931;-46.574542132;2662;50308;08/10/2025
petz;petz uberaba;Avenida Leopoldino de Oliveira;Centro;Uberaba;MG;Sudeste;38010-000;354.142;-19.7496894;-47.9341255;2001;70107;08/10/2025
petz;petz uberlandia;Avenida Rondon Pacheco;Tabajaras;Uberlândia;MG;Sudeste;38400-242;754.954;-18.9176448;-48.2657238;2001;70206;08/10/2025
petz;petz varzea grande;Avenida Miguel Sutil;Cidade Alta;Cuiabá;MT;Centro-Oeste;78030-485;314.627;-15.6067708;-56.1216663;2276;8402;08/10/2025
petz;petz vicente rao;Avenida Professor Vicente Ráo;Jardim Petrópolis;São Paulo;SP;Sudeste;04636-001;11.895.578;-23.2459599691;-46.3065230019;2662;50308;08/10/2025
petz;petz vila galvao;Rua Maria Primo de Jesus;Vila Galvão;Guarulhos;SP;Sudeste;07056-040;1.345.364;-23.4538199917;-46.533;2662;18800;08/10/2025
petz;petz vila isabel;Rua Teodoro da Silva;Vila Isabel;Rio de Janeiro;RJ;Sudeste;20560-025;6.729.894;-22.9185673;-43.2507474;2490;4557;08/10/2025
petz;petz vila mariana;Rua Vergueiro;Vila Mariana;São Paulo;SP;Sudeste;04102-000;11.895.578;-23.5802582809;-46.6392371252;2662;50308;08/10/2025
petz;petz vila matilde;Avenida Conde de Frontin;Tatuapé;São Paulo;SP;Sudeste;03501-000;11.895.578;-23.3777199799;-46.8217480603;2662;50308;08/10/2025
petz;petz vila velha;Travessa Santa Leopoldina;Coqueiral de Itaparica;Vila Velha;ES;Sudeste;29102-320;502.899;-20.3545362;-40.2945134;2111;5200;08/10/2025
petz;petz vitoria;Avenida Nossa Senhora da Penha;Santa Lúcia;Vitória;ES;Sudeste;29056-075;342.800;-20.2982193;-40.2999592;2111;5309;08/10/2025
petz;petz vitoria da conquista;Avenida Olívia Flores;Candeias;Vitória da Conquista;BA;Nordeste;45028-610;394.024;-14.8605196;-40.8267051;1366;33307;08/10/2025
petz;petz washington luis;Avenida Washington Luís;Santo Amaro;São Paulo;SP;Sudeste;04662-003;11.895.578;-23.8537300363;-46.9695021994;2662;50308;08/10/2025
petz;petz washington soares;Avenida Washington Soares;Engenheiro Luciano Cavalcante;Fortaleza;CE;Nordeste;60810-350;2.574.412;-3.7749868;-38.4876205;1225;4400;08/10/2025
cobasi;cobasi getulio vargas - osasco;avenida getulio vargas;;osasco;SP;Sudeste;indisponivel;756.952;;;2662;34401;08/10/2025
cobasi;cobasi jandira mall;rua manoel alves garcia;;jandira;SP;Sudeste;indisponivel;121.988;;;2662;25003;08/10/2025
cobasi;cobasi joao pessoa;rua bacharel jose de oliveira curchatuz;;joao pessoa;PB;Nordeste;indisponivel;888.679;;;1401;7507;08/10/2025
cobasi;cobasi marilia esmeralda;avenida das esmeraldas;;marilia;SP;Sudeste;indisponivel;246.627;;;2662;29005;08/10/2025
cobasi;cobasi presidente prudente;avenida onze de maio;;presidente prudente;SP;Sudeste;indisponivel;234.083;;;2662;41406;08/10/2025
cobasi;cobasi riviera de sao lourenco;rua aprovada 239;;bertioga;SP;Sudeste;indisponivel;66.873;;;2662;6359;08/10/2025
cobasi;pet shop cobasi alphaville;Alameda Rio Negro;Alphaville Centro Industrial e Empresarial/Alphaville.;Barueri;SP;Sudeste;06454-000;330.339;-23.5001099961;-46.8878758994;2662;5708;08/10/2025
cobasi;pet shop cobasi alto da boa vista;Avenida Santo Amaro;Santo Amaro;São Paulo;SP;Sudeste;04702-002;11.895.578;-23.8577800354;-46.636;2662;50308;08/10/2025
cobasi;pet shop cobasi alto de pinheiros;Avenida General Furtado Nascimento;Alto de Pinheiros;São Paulo;SP;Sudeste;05465-070;11.895.578;-23.1392199516;-47.0819131554;2662;50308;08/10/2025
cobasi;pet shop cobasi americana;Avenida Brasil;Jardim São Paulo;Americana;SP;Sudeste;13468-000;246.655;-22.7378463;-47.3335688;2662;1608;08/10/2025
cobasi;pet shop cobasi andradas;Avenida dos Andradas;Pompéia;Belo Horizonte;MG;Sudeste;30280-020;2.416.339;-19.9161426;-43.9092584;2001;6200;08/10/2025
cobasi;pet shop cobasi aracaju rio mar;Avenida Delmiro Gouveia;Coroa do Meio;Aracaju;SE;Nordeste;49035-500;628.849;-10.9594312;-37.0419023;1473;308;08/10/2025
cobasi;pet shop cobasi araraquara;Avenida Alberto Benassi;Jardim Bandeirantes;Araraquara;SP;Sudeste;14804-300;252.318;-21.7864532;-48.2205797;2662;3208;08/10/2025
cobasi;pet shop cobasi araraquara savegnago;rua mauricio gali;;araraquara;SP;Sudeste;indisponivel;252.318;;;2662;3208;08/10/2025
cobasi;pet shop cobasi aracatuba;Rua Luiz Pereira Barreto;Vila São Paulo;Araçatuba;SP;Sudeste;16015-445;207.775;-21.2028539;-50.4536793;2662;2804;08/10/2025
cobasi;pet shop cobasi assai anhanguera;Rua Samuel Klabin 193;Bela Aliança;São Paulo;SP;Sudeste;05077-903;11.895.578;-23.4443199877;-46.636;2662;50308;08/10/2025
cobasi;pet shop cobasi assai interlagos;Avenida Sargento Geraldo Sant'Ana;Jardim Taquaral;São Paulo;SP;Sudeste;04674-225;11.895.578;-23.2408299685;-46.9710730021;2662;50308;08/10/2025
cobasi;pet shop cobasi assai marginal tiete;Avenida Condessa Elisabeth de Robiano;Jardim América da Penha;São Paulo;SP;Sudeste;03704-000;11.895.578;-23.742400024;-46.8480590975;2662;50308;08/10/2025
cobasi;pet shop cobasi atibaia;Rua José Alvim;Centro;Atibaia;SP;Sudeste;12940-750;166.043;-23.1164904;-46.5522265;2662;4107;08/10/2025
cobasi;pet shop cobasi atibaia ii;Avenida Brigadeiro José Vicente Faria Lima;Centro;Atibaia;SP;Sudeste;12940-284;166.043;-23.1175492;-46.5567066;2662;4107;08/10/2025
cobasi;pet shop cobasi atlantica;Avenida Atlântica;Interlagos;São Paulo;SP;Sudeste;04772-005;11.895.578;-23.548;-46.2891459381;2662;50308;08/10/2025
cobasi;pet shop cobasi augusta;Rua Augusta;Cerqueira César;São Paulo;SP;Sudeste;01412-000;11.895.578;-23.5330599959;-46.636;2662;50308;08/10/2025
cobasi;pet shop cobasi av. jundiai;Avenida Jundiaí;Anhangabaú;Jundiaí;SP;Sudeste;13208-051;460.313;-23.1909011;-46.8999397;2662;25904;08/10/2025
cobasi;pet shop cobasi av. morumbi;Avenida Morumbi;Morumbi;São Paulo;SP;Sudeste;05606-200;11.895.578;-23.9710900446;-47.0975230552;2662;50308;08/10/2025
cobasi;pet shop cobasi avenida sao miguel;Avenida São Miguel;Vila Norma;São Paulo;SP;Sudeste;08070-002;11.895.578;-24.0221200517;-46.1188114309;2662;50308;08/10/2025
cobasi;pet shop cobasi bh belvedere;Rua Maria Luiza Santiago;Santa Lúcia;Belo Horizonte;MG;Sudeste;30360-740;2.416.339;-19.9734626;-43.9480794;2001;6200;08/10/2025
cobasi;pet shop cobasi bh castelo;Avenida Heráclito Mourão de Miranda;Alípio de Melo;Belo Horizonte;MG;Sudeste;30840-032;2.416.339;-19.89405;-44.0041007;2001;6200;08/10/2025
cobasi;pet shop cobasi bh contorno;Avenida do Contorno;Santa Efigênia;Belo Horizonte;MG;Sudeste;30110-017;2.416.339;-19.9139617;-43.9323353;2001;6200;08/10/2025
cobasi;pet shop cobasi bh del rey;Avenida Presidente Carlos Luz;Caiçaras;Belo Horizonte;MG;Sudeste;31250-010;2.416.339;-19.9012987;-43.9667394;2001;6200;08/10/2025
cobasi;pet shop cobasi barra carrefour;Avenida das Américas;Barra da Tijuca;Rio de Janeiro;RJ;Sudeste;22640-102;6.729.894;-22.9999428;-43.341407;2490;4557;08/10/2025
cobasi;pet shop cobasi barra guanabara;Avenida das Américas;Barra da Tijuca;Rio de Janeiro;RJ;Sudeste;22631-003;6.729.894;-23.0008235;-43.3456628;2490;4557;08/10/2025
cobasi;pet shop cobasi barra sul;Avenida Diário de Notícias;Cristal;Porto Alegre;RS;Sul;90810-080;1.389.322;-30.0504600069;-51.2098322109;2608;14902;08/10/2025
cobasi;pet shop cobasi barreiros;Avenida Leoberto Leal;Barreiros;São José;SC;Sul;88117-001;289.949;-27.615;-48.6149989394;2601;16602;08/10/2025
cobasi;pet shop cobasi barretos;Avenida Engenheiro Necker Carvalho de Camargos;América;Barretos;SP;Sudeste;14783-085;126.600;-20.5696797;-48.5757464;2662;5500;08/10/2025
cobasi;pet shop cobasi bauru;Rua São Gonçalo;Vila Altinópolis;Bauru;SP;Sudeste;17012-170;391.740;-22.314459;-49.0586951;2662;6003;08/10/2025
cobasi;pet shop cobasi belem bosque grao para;Passagem Cruzeiro;Mangueirão;Belém;PA;Norte;66640-840;1.398.531;-1.3794267;-48.453117;1344;1402;08/10/2025
cobasi;pet shop cobasi birigui;Avenida Euclides Miragaia;Jardim Jussara Maria;Birigüi;SP;Sudeste;16204-000;122.988;-21.3031528;-50.3585193;2662;6508;08/10/2025
cobasi;pet shop cobasi blumenau neumarkt;Rua Sete de Setembro;Centro;Blumenau;SC;Sul;89010-201;380.597;-26.919360001;-49.0655962518;2601;2404;08/10/2025
cobasi;pet shop cobasi blumenau norte shopping;Rodovia BR-470;Salto do Norte;Blumenau;SC;Sul;89065-800;380.597;-26.8885799887;-49.0318833641;2601;2404;08/10/2025
cobasi;pet shop cobasi botafogo;rua voluntarios da patria;;rio de janeiro;RJ;Sudeste;indisponivel;6.729.894;;;2490;4557;08/10/2025
cobasi;pet shop cobasi botucatu mall;Avenida Professor José Pedretti Neto;Conjunto Residencial Frei Fidelis;Botucatu;SP;Sudeste;18606-125;150.442;-22.898978;-48.4484111;2662;7506;08/10/2025
cobasi;pet shop cobasi braganca paulista;Rua Alpheu Grimello;Taboão;Bragança Paulista;SP;Sudeste;12916-010;184.634;-22.9743115;-46.5353135;2662;7605;08/10/2025
cobasi;pet shop cobasi braganca paulista - av. dos imigrantes;avenida dos imigrantes;;braganca paulista;SP;Sudeste;12802-000;184.634;;;2662;7605;08/10/2025
cobasi;pet shop cobasi brasilia venancio;SCS Quadra 8 Bloco B Lotes 50/60;Asa Sul;Brasília;DF;Centro-Oeste;70333-900;2.982.818;-15.820697;-47.917206;3444;108;08/10/2025
cobasi;pet shop cobasi brasilia asa norte;Quadra SEPN 516 Bloco E;Asa Norte;Brasília;DF;Centro-Oeste;70770-525;2.982.818;-15.7766266;-47.8751937;3444;108;08/10/2025
cobasi;pet shop cobasi brasilia casapark;SGCV Lote 09;Zona Industrial (Guará);Brasília;DF;Centro-Oeste;71215-900;2.982.818;-15.8102388;-47.9713115;3444;108;08/10/2025
cobasi;pet shop cobasi brasilia pistao sul;Quadra Setor D Sul;Taguatinga Sul (Taguatinga);Brasília;DF;Centro-Oeste;72020-111;2.982.818;-15.8107481;-48.065751;3444;108;08/10/2025
cobasi;pet shop cobasi brasilia sia;Trecho SIA Trecho 2;Zona Industrial (Guará);Brasília;DF;Centro-Oeste;71200-020;2.982.818;-15.7872388;-47.9403153;3444;108;08/10/2025
cobasi;pet shop cobasi brasilia taquari;Avenida Comercial;Setor Habitacional Taquari (Lago Norte);Brasília;DF;Centro-Oeste;71551-010;2.982.818;-15.6956128426;-47.8729882757;3444;108;08/10/2025
cobasi;pet shop cobasi braz leme;Avenida Braz Leme;Casa Verde;São Paulo;SP;Sudeste;02511-000;11.895.578;-23.5062973;-46.6438294;2662;50308;08/10/2025
cobasi;pet shop cobasi brooklin;Avenida Washington Luís;Santo Amaro;São Paulo;SP;Sudeste;04627-003;11.895.578;-23.2466799676;-46.636;2662;50308;08/10/2025
cobasi;pet shop cobasi buritis;Avenida Professor Mário Werneck;Buritis;Belo Horizonte;MG;Sudeste;30575-180;2.416.339;-19.975593;-43.9682604;2001;6200;08/10/2025
cobasi;pet shop cobasi butanta;Avenida Professor Francisco Morato;Butantã;São Paulo;SP;Sudeste;05513-300;11.895.578;-23.1370599508;-46.636;2662;50308;08/10/2025
cobasi;pet shop cobasi cachoeirinha;Avenida Parada Pinto;Vila Nova Cachoeirinha;São Paulo;SP;Sudeste;02611-002;11.895.578;-23.4599799904;-46.5399843544;2662;50308;08/10/2025
cobasi;pet shop cobasi caminho do mar;Avenida Caminho do Mar;Rudge Ramos;São Bernardo do Campo;SP;Sudeste;09609-000;840.499;-23.694540002;-46.565;2662;48708;08/10/2025
cobasi;pet shop cobasi campinas abolicao;Rua da Abolição;Ponte Preta;Campinas;SP;Sudeste;13041-445;1.185.977;-22.9184528;-47.0546529;2662;9502;08/10/2025
cobasi;pet shop cobasi campinas amoreiras;Avenida Ruy Rodriguez;Jardim Novo Campos Elíseos;Campinas;SP;Sudeste;13060-192;1.185.977;-22.9099384;-47.0626332;2662;9502;08/10/2025
cobasi;pet shop cobasi campinas cambui;Avenida Orosimbo Maia;Cambuí;Campinas;SP;Sudeste;13024-045;1.185.977;-22.8921264;-47.0546529;2662;9502;08/10/2025
cobasi;pet shop cobasi campinas cambui ii;Rua Coronel Francisco Andrade Coutinho;Cambuí;Campinas;SP;Sudeste;13025-190;1.185.977;-22.9048812;-47.0482191;2662;9502;08/10/2025
cobasi;pet shop cobasi campinas princesa d’ oeste;Avenida Princesa D'Oeste;Jardim Paraíso;Campinas;SP;Sudeste;13100-040;1.185.977;-22.9122981;-47.0450109;2662;9502;08/10/2025
cobasi;pet shop cobasi campinas shopping galleria;Avenida Doutor José Bonifácio Coutinho Nogueira 225;Jardim Madalena;Campinas;SP;Sudeste;13091-910;1.185.977;-22.9099384;-47.0626332;2662;9502;08/10/2025
cobasi;pet shop cobasi campinas taquaral;Avenida Doutor Theodureto de Almeida Camargo;Jardim Nossa Senhora Auxiliadora;Campinas;SP;Sudeste;13075-630;1.185.977;-22.8741326;-47.0694663;2662;9502;08/10/2025
cobasi;pet shop cobasi campo grande ms;Avenida Afonso Pena;Jardim dos Estados;Campo Grande;MS;Centro-Oeste;79020-000;954.537;-20.4697105;-54.6201211;2169;2704;08/10/2025
cobasi;pet shop cobasi campo limpo;Rua Doutor Joviano Pacheco de Aguirre;Jardim Bom Refúgio;São Paulo;SP;Sudeste;05788-290;11.895.578;-23.9897200453;-47.1178453836;2662;50308;08/10/2025
cobasi;pet shop cobasi candangolandia;Setor de Postos e Motéis Sul I;Candangolândia;Brasília;DF;Centro-Oeste;71727-800;2.982.818;-15.8495671;-47.9490349;3444;108;08/10/2025
cobasi;pet shop cobasi canoas;Avenida Farroupilha;Marechal Rondon;Canoas;RS;Sul;92020-475;359.554;-29.9181800028;-51.184;2608;4606;08/10/2025
cobasi;pet shop cobasi canoas br116;avenida getulio vargas;;canoas;RS;Sul;92010-013;359.554;;;2608;4606;08/10/2025
cobasi;pet shop cobasi cantareira norte shopping;Avenida Raimundo Pereira de Magalhães;Jardim Pirituba;São Paulo;SP;Sudeste;02984-035;11.895.578;-23.4295599827;-46.636;2662;50308;08/10/2025
cobasi;pet shop cobasi carapicuiba;Avenida Desembargador Doutor Eduardo Cunha de Abreu;Vila Municipal;Carapicuíba;SP;Sudeste;06328-330;398.462;-23.523;-46.8306995218;2662;10609;08/10/2025
cobasi;pet shop cobasi carrefour nacoes;Avenida das Nações Unidas;Vila Gertrudes;São Paulo;SP;Sudeste;04794-000;11.895.578;-23.8691200376;-46.636;2662;50308;08/10/2025
cobasi;pet shop cobasi carrao;Rua Serra de Botucatu;Vila Gomes Cardim;São Paulo;SP;Sudeste;03317-001;11.895.578;-23.3963499821;-46.636;2662;50308;08/10/2025
cobasi;pet shop cobasi casa forte;r. leonardo bezerra cavalcanti;;recife;PE;Nordeste;52060-030;1.587.707;;;1453;11606;08/10/2025
cobasi;pet shop cobasi cascavel;Avenida Brasil;Região do Lago;Cascavel;PR;Sul;85812-500;364.104;-24.9518599954;-53.4504336442;2482;4808;08/10/2025
cobasi;pet shop cobasi caxias do sul;Avenida Therezinha Pauletti Sanvitto;Sanvitto;Caxias do Sul;RS;Sul;95110-195;479.256;-29.1959000071;-51.179;2608;5108;08/10/2025
cobasi;pet shop cobasi cerro cora;Rua Cerro Corá;Vila Romana;São Paulo;SP;Sudeste;05061-400;11.895.578;-23.1800799567;-46.2346585252;2662;50308;08/10/2025
cobasi;pet shop cobasi comendador agostinho - limeira ii;Avenida Comendador Agostinho Prada;Jardim Maria Bruschi Modeneis;Limeira;SP;Sudeste;13482-220;300.728;-22.5665354;-47.3974368;2662;26902;08/10/2025
cobasi;pet shop cobasi conselheiro rodrigues alves;Rua Vergueiro;Vila Mariana;São Paulo;SP;Sudeste;04102-000;11.895.578;-23.5802582809;-46.6392371252;2662;50308;08/10/2025
cobasi;pet shop cobasi continente shopping;Rodovia BR-101;Distrito Industrial;São José;SC;Sul;88104-800;289.949;-27.6184200037;-48.624140309;2601;16602;08/10/2025
cobasi;pet shop cobasi copacabana posto 2;Avenida Nossa Senhora de Copacabana;Copacabana;Rio de Janeiro;RJ;Sudeste;22020-002;6.729.894;-22.9638439;-43.1736318;2490;4557;08/10/2025
cobasi;pet shop cobasi corifeu;Avenida Corifeu de Azevedo Marques;Butantã;São Paulo;SP;Sudeste;05582-000;11.895.578;-23.9683900444;-46.1774222099;2662;50308;08/10/2025
cobasi;pet shop cobasi cotia;Rua Luiz Silva;Parque Rincão;Cotia;SP;Sudeste;06716-030;287.004;-23.5922099921;-46.9061335148;2662;13009;08/10/2025
cobasi;pet shop cobasi criciuma;Avenida Jorge Elias de Lucca;Nossa Senhora da Salete;Criciúma;SC;Sul;88813-390;225.281;-28.6668399983;-49.37;2601;4608;08/10/2025
cobasi;pet shop cobasi cuiaba cpa;Avenida Historiador Rubens de Mendonça;Bosque da Saúde;Cuiabá;MT;Centro-Oeste;78050-000;682.932;-15.5883253;-56.0836532;2276;3403;08/10/2025
cobasi;pet shop cobasi curitiba linha verde;Avenida Senador Salgado Filho;Prado Velho;Curitiba;PR;Sul;80215-270;1.829.225;-25.4244899937;-49.2691134903;2482;6902;08/10/2025
cobasi;pet shop cobasi curitiba mario tourinho;rua general mario tourinho;;curitiba;PR;Sul;80740-016;1.829.225;;;2482;6902;08/10/2025
cobasi;pet shop cobasi curitiba novo mundo;Rua Isaac Guelmann;Novo Mundo;Curitiba;PR;Sul;81050-030;1.829.225;-25.410719998;-49.2921335542;2482;6902;08/10/2025
cobasi;pet shop cobasi df gama;Quadra Quadra 55;Setor Central (Gama);Brasília;DF;Centro-Oeste;72405-550;2.982.818;-16.019879;-48.0670828;3444;108;08/10/2025
cobasi;pet shop cobasi go planaltina;Área AEN 19;Setor Norte (Planaltina);Brasília;DF;Centro-Oeste;73340-190;110.619;-15.6060191;-47.6603747;2098;17609;08/10/2025
cobasi;pet shop cobasi df plaza shopping;Rua Copaíba;Norte (Águas Claras);Brasília;DF;Centro-Oeste;71919-540;2.982.818;-15.8336667;-48.039146;3444;108;08/10/2025
cobasi;pet shop cobasi diadema;Avenida Presidente Kennedy;Centro;Diadema;SP;Sudeste;09913-000;404.118;-23.6877100081;-46.623;2662;13801;08/10/2025
cobasi;pet shop cobasi eco mall pinheirinho;Rodovia BR-116;Xaxim;Curitiba;PR;Sul;81690-300;1.829.225;-25.3830899924;-49.2232726872;2482;6902;08/10/2025
cobasi;pet shop cobasi embu das artes;Rua Alexandre Kadunc;Tingidor;Embu das Artes;SP;Sudeste;06803-045;259.323;-23.652609;-46.8487976;2662;15004;08/10/2025
cobasi;pet shop cobasi embu das artes ii;Rua São Luiz;Centro;Embu das Artes;SP;Sudeste;06840-050;259.323;-23.649;-46.8418801256;2662;15004;08/10/2025
cobasi;pet shop cobasi engenheiro caetano alvares;av. eng. caetano alvares;;sao paulo;SP;Sudeste;indisponivel;11.895.578;;;2662;50308;08/10/2025
cobasi;pet shop cobasi epitacio pessoa;Avenida Presidente Epitácio Pessoa;Tambauzinho;João Pessoa;PB;Nordeste;58042-006;888.679;-7.1236539;-34.8472401;1401;7507;08/10/2025
cobasi;pet shop cobasi ermano marchetti;Rua Luiz Gatti;Água Branca;São Paulo;SP;Sudeste;05038-150;11.895.578;-23.9136700368;-46.2371129198;2662;50308;08/10/2025
cobasi;pet shop cobasi estr. do campo limpo;Estrada do Campo Limpo;Pirajussara;São Paulo;SP;Sudeste;05787-000;11.895.578;-23.1063699481;-46.1542527848;2662;50308;08/10/2025
cobasi;pet shop cobasi estrada de itapecerica;Estrada de Itapecerica;Vila Maracanã;São Paulo;SP;Sudeste;05835-005;11.895.578;-23.1004299469;-46.1477732007;2662;50308;08/10/2025
cobasi;pet shop cobasi feira de santana;Avenida Governador João Durval Carneiro;Tomba;Feira de Santana;BA;Nordeste;44090-008;657.948;-12.2958364;-38.9485423;1366;10800;08/10/2025
cobasi;pet shop cobasi florianopolis;Rodovia José Carlos Daux;Saco Grande;Florianópolis;SC;Sul;88032-005;576.361;-27.597;-48.5435160762;2601;5407;08/10/2025
cobasi;pet shop cobasi florianopolis centro;Rua Francisco Tolentino;Centro;Florianópolis;SC;Sul;88010-200;576.361;-27.5967299983;-48.5493046639;2601;5407;08/10/2025
cobasi;pet shop cobasi fortaleza aldeota;Avenida Santos Dumont;Aldeota;Fortaleza;CE;Nordeste;60150-162;2.574.412;-3.7357094;-38.5069693;1225;4400;08/10/2025
cobasi;pet shop cobasi fortaleza meireles;Avenida Barão de Studart;Aldeota;Fortaleza;CE;Nordeste;60120-024;2.574.412;-3.7357094;-38.5069693;1225;4400;08/10/2025
cobasi;pet shop cobasi fortaleza open mall;Avenida Washington Soares;Engenheiro Luciano Cavalcante;Fortaleza;CE;Nordeste;60810-350;2.574.412;-3.7749868;-38.4876205;1225;4400;08/10/2025
cobasi;pet shop cobasi franca;Avenida Doutor Antônio Barboza Filho;Jardim Francano;Franca;SP;Sudeste;14405-000;364.331;-20.5428416;-47.4081341;2662;16200;08/10/2025
cobasi;pet shop cobasi frei gaspar;Avenida Brigadeiro Faria Lima;Centro;São Bernardo do Campo;SP;Sudeste;09720-010;840.499;-23.7005700093;-46.5721748124;2662;48708;08/10/2025
cobasi;pet shop cobasi goiania decathlon;Avenida I;Jardim Goiás;Goiânia;GO;Centro-Oeste;74810-075;1.494.599;-16.6486358;-49.1885389;2098;8707;08/10/2025
cobasi;pet shop cobasi goiania t63;Avenida T 63;Anhanguera;Goiânia;GO;Centro-Oeste;74335-104;1.494.599;-16.7202577;-49.3009077;2098;8707;08/10/2025
cobasi;pet shop cobasi granja vianna;Avenida Marginal;Parque São George;Cotia;SP;Sudeste;06708-030;287.004;-23.604;-46.911830128;2662;13009;08/10/2025
cobasi;pet shop cobasi guaruja;Avenida Leomil;Pitangueiras;Guarujá;SP;Sudeste;11410-160;294.973;-23.9948444;-46.2568678;2662;18701;08/10/2025
cobasi;pet shop cobasi guarulhos;Avenida Aniello Pratici;Jardim Santa Francisca;Guarulhos;SP;Sudeste;07013-000;1.345.364;-23.4634500008;-46.533;2662;18800;08/10/2025
cobasi;pet shop cobasi guarulhos centro;Rua Egisto Thomaz;Jardim Maia;Guarulhos;SP;Sudeste;07115-180;1.345.364;-23.440589996;-46.5085700651;2662;18800;08/10/2025
cobasi;pet shop cobasi guarulhos sakamoto;rodovia presidente dutra km 210;;guarulhos;SP;Sudeste;indisponivel;1.345.364;;;2662;18800;08/10/2025
cobasi;pet shop cobasi guarulhos timoteo penteado;Avenida Doutor Timóteo Penteado;Vila Hulda;Guarulhos;SP;Sudeste;07094-000;1.345.364;-23.4817200081;-46.5125926597;2662;18800;08/10/2025
cobasi;pet shop cobasi higienopolis;Avenida Angélica;Santa Cecília;São Paulo;SP;Sudeste;01228-000;11.895.578;-23.5403499917;-46.6443449262;2662;50308;08/10/2025
cobasi;pet shop cobasi iguatemi campinas;Avenida Iguatemi;Vila Brandina;Campinas;SP;Sudeste;13092-500;1.185.977;-22.8936642;-47.0278715;2662;9502;08/10/2025
cobasi;pet shop cobasi iguatemi fortaleza;Rua Albert Sabin;Guararapes;Fortaleza;CE;Nordeste;60810-060;2.574.412;-3.7318616;-38.5266704;1225;4400;08/10/2025
cobasi;pet shop cobasi imigrantes;Avenida Professor Abraão de Morais;Saúde;São Paulo;SP;Sudeste;04123-011;11.895.578;-23.548;-46.8962632735;2662;50308;08/10/2025
cobasi;pet shop cobasi imirim;Avenida Imirim;Imirim;São Paulo;SP;Sudeste;02465-300;11.895.578;-23.6262100157;-46.5506854769;2662;50308;08/10/2025
cobasi;pet shop cobasi indaiatuba;Avenida Presidente Vargas;Cidade Nova I;Indaiatuba;SP;Sudeste;13334-085;267.796;-23.0871466;-47.2045596;2662;20509;08/10/2025
cobasi;pet shop cobasi interlar interlagos;Avenida Interlagos;Jardim Umuarama;São Paulo;SP;Sudeste;04661-100;11.895.578;-23.242269969;-46.636;2662;50308;08/10/2025
cobasi;pet shop cobasi itajai;Avenida Osvaldo Reis;Praia Brava de Itajaí;Itajaí;SC;Sul;88306-600;287.289;-26.9060199954;-48.6642203974;2601;8203;08/10/2025
cobasi;pet shop cobasi itaquaquecetuba davo;Avenida Ítalo Adami;Vila Zeferina;Itaquaquecetuba;SP;Sudeste;08573-000;382.521;-23.486;-46.3504532325;2662;23107;08/10/2025
cobasi;pet shop cobasi itaquera;avenida itaquera;;sao paulo;SP;Sudeste;indisponivel;11.895.578;;;2662;50308;08/10/2025
cobasi;pet shop cobasi jabaquara;Avenida Engenheiro George Corbisier;Jabaquara;São Paulo;SP;Sudeste;04345-001;11.895.578;-23.6482179;-46.6457286;2662;50308;08/10/2025
cobasi;pet shop cobasi jaboatao dos guararapes;Avenida Bernardo Vieira de Melo;Piedade;Jaboatão dos Guararapes;PE;Nordeste;54410-010;683.285;-8.1775463;-34.9170705;1453;7901;08/10/2025
cobasi;pet shop cobasi jacarei tenda;Praça Charles Gates;Jardim das Indústrias;Jacareí;SP;Sudeste;12306-090;249.968;-23.2987827;-45.9662542;2662;24402;08/10/2025
cobasi;pet shop cobasi jardim japao;Avenida Jardim Japão;Jardim Brasil (Zona Norte);São Paulo;SP;Sudeste;02221-001;11.895.578;-23.5904800081;-46.636;2662;50308;08/10/2025
cobasi;pet shop cobasi jau;Avenida Anna Claudina;Jardim Estádio;Jaú;SP;Sudeste;17203-381;137.323;-22.3019794;-48.5711073;2662;25300;08/10/2025
cobasi;pet shop cobasi jd. botanico;cj smdb area especial d;;brasilia;DF;Centro-Oeste;indisponivel;2.982.818;;;3444;108;08/10/2025
cobasi;pet shop cobasi joinville;Avenida Rolf Wiest;Bom Retiro;Joinville;SC;Sul;89223-005;654.888;-26.304;-48.8668822445;2601;9102;08/10/2025
cobasi;pet shop cobasi juiz de fora jardim norte;Rua Bernardo Mascarenhas;Mariano Procópio;Juiz de Fora;MG;Sudeste;36080-000;565.764;-21.7466546;-43.3645759;2001;36702;08/10/2025
cobasi;pet shop cobasi jundiai;Rua José Amato;Ponte de Campinas;Jundiaí;SP;Sudeste;13201-141;460.313;-23.1753283;-46.896855;2662;25904;08/10/2025
cobasi;pet shop cobasi lauro de freitas;Avenida Santos Dumont;Pitangueiras;Lauro de Freitas;BA;Nordeste;42701-260;217.960;-12.8983086;-38.3315104;1366;19207;08/10/2025
cobasi;pet shop cobasi limeira;Avenida Carlos Kuntz Busch 800;Parque Egisto Ragazzo;Limeira;SP;Sudeste;13485-905;300.728;-22.5319933;-47.3865929;2662;26902;08/10/2025
cobasi;pet shop cobasi londrina centro;Rua Minas Gerais;Centro;Londrina;PR;Sul;86010-170;577.318;-23.3102700011;-51.162706002;2482;13700;08/10/2025
cobasi;pet shop cobasi londrina madre leonia;Avenida Madre Leônia Milito;Bela Suiça;Londrina;PR;Sul;86050-270;577.318;-23.2897499895;-51.163;2482;13700;08/10/2025
cobasi;pet shop cobasi mboi mirim;Estrada do M'Boi Mirim;Jardim Regina;São Paulo;SP;Sudeste;04905-002;11.895.578;-23.1954699595;-46.636;2662;50308;08/10/2025
cobasi;pet shop cobasi maceio fernandes lima;Avenida Fernandes Lima;Farol;Maceió;AL;Nordeste;57055-000;994.464;-9.644236;-35.7353057;1331;4302;08/10/2025
cobasi;pet shop cobasi maracanau;Rua João de Alencar;Centro;Maracanaú;CE;Nordeste;61900-150;249.684;-3.879072;-38.6235321;1225;7650;08/10/2025
cobasi;pet shop cobasi marechal tito;Avenida Marechal Tito;São Miguel Paulista;São Paulo;SP;Sudeste;08022-000;11.895.578;-23.0829699511;-46.636;2662;50308;08/10/2025
cobasi;pet shop cobasi marginal pinheiros;Avenida das Nações Unidas;Vila Almeida;São Paulo;SP;Sudeste;04795-100;11.895.578;-23.2268799659;-46.9862902068;2662;50308;08/10/2025
cobasi;pet shop cobasi marginal tiete;Rua Maria Prestes Maia;Vila Guilherme;São Paulo;SP;Sudeste;02047-000;11.895.578;-23.520549989;-46.6659435382;2662;50308;08/10/2025
cobasi;pet shop cobasi maringa;Avenida João Paulino Vieira Filho;Zona 01;Maringá;PR;Sul;87020-015;425.983;-23.4277900063;-51.9359593904;2482;15200;08/10/2025
cobasi;pet shop cobasi marilia;Avenida Sampaio Vidal;Centro;Marília;SP;Sudeste;17500-022;246.627;-22.2175846;-49.9505291;2662;29005;08/10/2025
cobasi;pet shop cobasi minas shopping;avenida cristiano machado;;belo horizonte;MG;Sudeste;31160-959;2.416.339;;;2001;6200;08/10/2025
cobasi;pet shop cobasi moema passaros;Avenida Ibirapuera;Indianópolis;São Paulo;SP;Sudeste;04028-002;11.895.578;-23.548;-46.3865360374;2662;50308;08/10/2025
cobasi;pet shop cobasi moinhos dos ventos;Rua Miguel Tostes;Rio Branco;Porto Alegre;RS;Sul;90430-060;1.389.322;-30.033;-51.2181488219;2608;14902;08/10/2025
cobasi;pet shop cobasi mooca;Avenida Alcântara Machado;Brás;São Paulo;SP;Sudeste;03101-000;11.895.578;-23.419839982;-46.7758019259;2662;50308;08/10/2025
cobasi;pet shop cobasi morumbi;Avenida Giovanni Gronchi;Vila Andrade;São Paulo;SP;Sudeste;05724-003;11.895.578;-23.1148299492;-46.1634812825;2662;50308;08/10/2025
cobasi;pet shop cobasi natal;Avenida Senador Salgado Filho;Lagoa Nova;Natal;RN;Nordeste;59076-000;785.368;-5.8259362;-35.2099611;1616;8102;08/10/2025
cobasi;pet shop cobasi niteroi;Rua Marechal Deodoro;Centro;Niterói;RJ;Sudeste;24030-060;516.720;-22.8895663;-43.1191126;2490;3302;08/10/2025
cobasi;pet shop cobasi nossa senhora do carmo;Beco São Paulo;Santa Rita de Cássia;Belo Horizonte;MG;Sudeste;30335-300;2.416.339;-19.9529456;-43.94026;2001;6200;08/10/2025
cobasi;pet shop cobasi nova cantareira;avenida nova cantareira;;sao paulo;SP;Sudeste;indisponivel;11.895.578;;;2662;50308;08/10/2025
cobasi;pet shop cobasi novo hamburgo;Avenida Primeiro de Março;Pátria Nova;Novo Hamburgo;RS;Sul;93320-102;235.879;-29.6968555;-51.1312489;2608;13409;08/10/2025
cobasi;pet shop cobasi osasco;Avenida dos Autonomistas;Centro;Osasco;SP;Sudeste;06090-010;756.952;-23.5234599921;-46.8024054244;2662;34401;08/10/2025
cobasi;pet shop cobasi osasco joao andrade;Avenida João de Andrade;Santo Antônio;Osasco;SP;Sudeste;06132-006;756.952;-23.533;-46.7777661708;2662;34401;08/10/2025
cobasi;pet shop cobasi poa assis brasil;Avenida Assis Brasil;Jardim Lindóia;Porto Alegre;RS;Sul;91010-003;1.389.322;-30.0569400052;-51.2576527369;2608;14902;08/10/2025
cobasi;pet shop cobasi poa av. brasil;Avenida Brasil;Navegantes;Porto Alegre;RS;Sul;90230-061;1.389.322;-30.0267899985;-51.2371730785;2608;14902;08/10/2025
cobasi;pet shop cobasi poa bollogna mall;Avenida Coronel Marcos;Pedra Redonda;Porto Alegre;RS;Sul;91760-000;1.389.322;-29.9690099925;-51.1560861131;2608;14902;08/10/2025
cobasi;pet shop cobasi poa central parque;Avenida Ipiranga;Jardim Botânico;Porto Alegre;RS;Sul;91530-000;1.389.322;-30.0851100109;-51.2901914831;2608;14902;08/10/2025
cobasi;pet shop cobasi palmas;Quadra 105 Norte Alameda das Aroeiras;Plano Diretor Norte;Palmas;TO;Norte;77001-048;323.625;-10.1778543316;-48.3453318282;1737;21000;08/10/2025
cobasi;pet shop cobasi park shopping jacarepagua;Rua Francisco Dantas;Freguesia (Jacarepaguá);Rio de Janeiro;RJ;Sudeste;22753-045;6.729.894;-22.9465657;-43.3406704;2490;4557;08/10/2025
cobasi;pet shop cobasi parque olimpico;Avenida Embaixador Abelardo Bueno;Barra da Tijuca;Rio de Janeiro;RJ;Sudeste;22775-040;6.729.894;-22.9727518094;-43.3884886319;2490;4557;08/10/2025
cobasi;pet shop cobasi passo fundo shopping;Avenida Presidente Vargas;São Cristóvão;Passo Fundo;RS;Sul;99064-000;214.564;-28.2512099968;-52.3936141843;2608;14100;08/10/2025
cobasi;pet shop cobasi paulinia;Avenida José Paulino;Morumbi;Paulínia;SP;Sudeste;13140-723;115.690;-22.7585615;-47.1596551;2662;36505;08/10/2025
cobasi;pet shop cobasi pelotas;Avenida Ferreira Viana;Areal;Pelotas;RS;Sul;96085-000;336.131;-31.772;-52.3312491227;2608;14407;08/10/2025
cobasi;pet shop cobasi pinhais;Rua Primeiro de Maio;Centro;Pinhais;PR;Sul;83323-020;131.199;-25.4431999951;-49.194993365;2482;19152;08/10/2025
cobasi;pet shop cobasi piracicaba;Avenida Limeira;Areião;Piracicaba;SP;Sudeste;13414-018;438.827;-22.7033977;-47.6516183;2662;38709;08/10/2025
cobasi;pet shop cobasi piracicaba independencia;Avenida Independência;Cidade Alta;Piracicaba;SP;Sudeste;13419-160;438.827;-22.7347253;-47.6497317;2662;38709;08/10/2025
cobasi;pet shop cobasi poa wenceslau escobar;Avenida Wenceslau Escobar;Cristal;Porto Alegre;RS;Sul;91900-000;1.389.322;-29.9598299876;-51.23;2608;14902;08/10/2025
cobasi;pet shop cobasi pompeia;Rua Carlos Vicari;Água Branca;São Paulo;SP;Sudeste;05033-070;11.895.578;-23.548;-47.0341998539;2662;50308;08/10/2025
cobasi;pet shop cobasi ponta grossa;Avenida Ernesto Vilela;Nova Rússia;Ponta Grossa;PR;Sul;84070-000;372.562;-25.1167800028;-50.1379497979;2482;19905;08/10/2025
cobasi;pet shop cobasi ponta grossa ii;Rua Ermelino de Leão;Olarias;Ponta Grossa;PR;Sul;84035-000;372.562;-25.0850099959;-50.1730312942;2482;19905;08/10/2025
cobasi;pet shop cobasi portal do morumbi;Avenida Doutor Guilherme Dumont Vilares 1210/1230;Jardim Londrina;São Paulo;SP;Sudeste;05640-902;11.895.578;-23.548;-46.763235456;2662;50308;08/10/2025
cobasi;pet shop cobasi porto alegre iguatemi;Rua Antônio Carlos Berta;Jardim Europa;Porto Alegre;RS;Sul;91340-020;1.389.322;-30.033;-51.279379889;2608;14902;08/10/2025
cobasi;pet shop cobasi porto alegre ipiranga;Avenida Ipiranga;Partenon;Porto Alegre;RS;Sul;90610-001;1.389.322;-30.0191399903;-51.246009487;2608;14902;08/10/2025
cobasi;pet shop cobasi praia grande;Avenida Ayrton Senna da Silva;Sítio do Campo;Praia Grande;SP;Sudeste;11726-000;365.577;-23.99403;-46.4061432;2662;41000;08/10/2025
cobasi;pet shop cobasi praia grande ocian;Avenida Presidente Kennedy;Ocian;Praia Grande;SP;Sudeste;11704-105;365.577;-24.025682;-46.479251;2662;41000;08/10/2025
cobasi;pet shop cobasi praca da arvore;Avenida Jabaquara;Mirandópolis;São Paulo;SP;Sudeste;04046-000;11.895.578;-23.317419971;-46.636;2662;50308;08/10/2025
cobasi;pet shop cobasi rj norte shopping;Avenida Dom Hélder Câmara 5474;Cachambi;Rio de Janeiro;RJ;Sudeste;20771-900;6.729.894;-22.8814021;-43.2934758;2490;4557;08/10/2025
cobasi;pet shop cobasi raposo tavares;Rodovia Raposo Tavares;Conjunto Residencial Butantã;São Paulo;SP;Sudeste;05576-000;11.895.578;-23.548;-46.1779130886;2662;50308;08/10/2025
cobasi;pet shop cobasi reboucas;Avenida Rebouças;Pinheiros;São Paulo;SP;Sudeste;05402-300;11.895.578;-23.146329956;-46.1978427136;2662;50308;08/10/2025
cobasi;pet shop cobasi recife;rua padre carapuceiro;;recife;PE;Nordeste;50020-280;1.587.707;;;1453;11606;08/10/2025
cobasi;pet shop cobasi ribeirao dom pedro i;Avenida Dom Pedro I;Ipiranga;Ribeirão Preto;SP;Sudeste;14055-630;728.400;-21.1529926;-47.8231922;2662;43402;08/10/2025
cobasi;pet shop cobasi ribeirao preto ii (loja maurilio biagi);Avenida Maurílio Biagi;Santa Cruz do José Jacques;Ribeirão Preto;SP;Sudeste;14020-750;728.400;-21.1704008;-47.8103238;2662;43402;08/10/2025
cobasi;pet shop cobasi ribeirao preto iguatemi;Avenida Luiz Eduardo Toledo Prado;Vila do Golf;Ribeirão Preto;SP;Sudeste;14027-250;728.400;-21.1704008;-47.8103238;2662;43402;08/10/2025
cobasi;pet shop cobasi ribeirao preto presidente vargas;Praça Presidente Vargas;Vila Abranches;Ribeirão Preto;SP;Sudeste;14093-129;728.400;-21.18607;-47.7557423;2662;43402;08/10/2025
cobasi;pet shop cobasi ricardo jafet;Avenida Doutor Ricardo Jafet;Vila Firmiano Pinto;São Paulo;SP;Sudeste;04123-030;11.895.578;-23.3093199739;-46.636;2662;50308;08/10/2025
cobasi;pet shop cobasi rio das pedras;Rua Jorge Ogushi;Jardim Vila Formosa;São Paulo;SP;Sudeste;03471-000;11.895.578;-23.548;-46.8201772583;2662;50308;08/10/2025
cobasi;pet shop cobasi rio de janeiro campo grande;Estrada do Monteiro;Campo Grande;Rio de Janeiro;RJ;Sudeste;23045-830;6.729.894;-22.9035842;-43.5662438;2490;4557;08/10/2025
cobasi;pet shop cobasi rui barbosa;Praça Rui Barbosa;Centro;Curitiba;PR;Sul;80010-030;1.829.225;-25.4280900038;-49.2729003419;2482;6902;08/10/2025
cobasi;pet shop cobasi sbc faria lima;Avenida Brigadeiro Faria Lima;Centro;São Bernardo do Campo;SP;Sudeste;09720-000;840.499;-23.700570008;-46.565;2662;48708;08/10/2025
cobasi;pet shop cobasi sp ipiranga;Avenida Doutor Ricardo Jafet;Vila Firmiano Pinto;São Paulo;SP;Sudeste;04123-030;11.895.578;-23.3093199739;-46.636;2662;50308;08/10/2025
cobasi;pet shop cobasi sabara;Rua Moacir Simões da Rocha;Jardim Itapeva;São Paulo;SP;Sudeste;04674-150;11.895.578;-23.2409199627;-46.9709748329;2662;50308;08/10/2025
cobasi;pet shop cobasi salto;Avenida José Maria Marques de Oliveira;Vila Norma;Salto;SP;Sudeste;13327-300;140.125;-23.1825156;-47.312556;2662;45209;08/10/2025
cobasi;pet shop cobasi salvador rio vermelho;Avenida Juracy Magalhães Júnior;Rio Vermelho;Salvador;BA;Nordeste;41940-060;2.568.928;-13.0057625;-38.4847772;1366;27408;08/10/2025
cobasi;pet shop cobasi santa barbara d’oeste tivoli;Rua do Osmio;Jardim Mollon;Santa Bárbara D'Oeste;SP;Sudeste;13456-625;189.338;-22.7471;-47.3657;2662;45803;08/10/2025
cobasi;pet shop cobasi santana;Rua Voluntários da Pátria;Santana;São Paulo;SP;Sudeste;02402-200;11.895.578;-23.4767199851;-46.713755009;2662;50308;08/10/2025
cobasi;pet shop cobasi santo andre av. dos estados;Avenida dos Estados;Parque Jaçatuba;Santo André;SP;Sudeste;09290-520;778.711;-23.6303399906;-46.538;2662;47809;08/10/2025
cobasi;pet shop cobasi santo andre p. barreto;Praça Engenheiro Roldão dos Santos Ferreira;Paraíso;Santo André;SP;Sudeste;09190-695;778.711;-23.6878500049;-46.5119604594;2662;47809;08/10/2025
cobasi;pet shop cobasi santo andre prestes maia;Praça Uirapuru;Santa Maria;Santo André;SP;Sudeste;09071-220;778.711;-23.6573399912;-46.545271427;2662;47809;08/10/2025
cobasi;pet shop cobasi santos afonso pena;Avenida Affonso Penna;Aparecida;Santos;SP;Sudeste;11020-002;429.567;-23.9590362;-46.3200008;2662;48500;08/10/2025
cobasi;pet shop cobasi santos conselheiro nebias;avenida conselheiro nebias;;santos;SP;Sudeste;indisponivel;429.567;;;2662;48500;08/10/2025
cobasi;pet shop cobasi santos francisco glicerio;Avenida General Francisco Glicério;Encruzilhada;Santos;SP;Sudeste;11065-400;429.567;-23.9673822;-46.3328146;2662;48500;08/10/2025
cobasi;pet shop cobasi sena madureira;Rua Sena Madureira;Vila Clementino;São Paulo;SP;Sudeste;04021-001;11.895.578;-23.3200299688;-46.3873214347;2662;50308;08/10/2025
cobasi;pet shop cobasi shop. estacao cuiaba;Avenida Miguel Sutil;Santa Rosa;Cuiabá;MT;Centro-Oeste;78040-365;682.932;-15.5874562;-56.1225948;2276;3403;08/10/2025
cobasi;pet shop cobasi shopping aricanduva;Avenida Aricanduva 5555;Jardim Santa Terezinha (Zona Leste);São Paulo;SP;Sudeste;03527-900;11.895.578;-23.5894000079;-46.6811607367;2662;50308;08/10/2025
cobasi;pet shop cobasi shopping eldorado;Avenida Rebouças;Pinheiros;São Paulo;SP;Sudeste;05402-600;11.895.578;-23.9496700432;-46.636;2662;50308;08/10/2025
cobasi;pet shop cobasi sorocaba av. sao paulo;rua antonio fernandes;;sorocaba;SP;Sudeste;indisponivel;757.459;;;2662;52205;08/10/2025
cobasi;pet shop cobasi sorocaba itavuvu;Avenida Itavuvu;Jardim Maria Antônia Prado;Sorocaba;SP;Sudeste;18076-005;757.459;-23.4785453;-47.4746565;2662;52205;08/10/2025
cobasi;pet shop cobasi sorocaba pannunzio;Avenida Doutor Armando Pannunzio;Jardim Vera Cruz;Sorocaba;SP;Sudeste;18050-000;757.459;-23.523089;-47.4910365;2662;52205;08/10/2025
cobasi;pet shop cobasi sorocaba panoramico;Avenida Comendador Pereira Inácio;Jardim Vergueiro;Sorocaba;SP;Sudeste;18030-005;757.459;-23.5180018;-47.4530326;2662;52205;08/10/2025
cobasi;pet shop cobasi sumare;Avenida Sumaré;Perdizes;São Paulo;SP;Sudeste;05016-090;11.895.578;-23.548;-46.2392727778;2662;50308;08/10/2025
cobasi;pet shop cobasi sumare parkcity shopping;Avenida Rebouças;Jardim Paulista;Sumaré;SP;Sudeste;13171-065;289.787;-22.8297121;-47.2664776;2662;52403;08/10/2025
cobasi;pet shop cobasi sao bernardo jurubatuba;Rua Jurubatuba;Centro;São Bernardo do Campo;SP;Sudeste;09725-001;840.499;-23.686529995;-46.5731576573;2662;48708;08/10/2025
cobasi;pet shop cobasi sao caetano;Avenida Guido Aliberti;Santo Antônio;São Caetano do Sul;SP;Sudeste;09530-200;172.109;-23.623;-46.5525717152;2662;48807;08/10/2025
cobasi;pet shop cobasi sao carlos;Passeio dos Flamboyants;Parque Faber Castell I;São Carlos;SP;Sudeste;13561-352;265.294;-22.0087082;-47.8909263;2662;48906;08/10/2025
cobasi;pet shop cobasi sao jose do rio preto falavina;Avenida Domingos Falavina;Jardim Marajó;São José do Rio Preto;SP;Sudeste;15046-265;501.597;-20.7795492;-49.386255;2662;49805;08/10/2025
cobasi;pet shop cobasi sao jose do rio preto iguatemi;Avenida Presidente Juscelino Kubitschek de Oliveira;Iguatemi;São José do Rio Preto;SP;Sudeste;15093-340;501.597;-20.811761;-49.3762272;2662;49805;08/10/2025
cobasi;pet shop cobasi sao jose dos campos;Avenida Deputado Benedito Matarazzo;Parque Residencial Aquarius;São José dos Campos;SP;Sudeste;12246-840;724.756;-23.2184518;-45.9027805;2662;49904;08/10/2025
cobasi;pet shop cobasi sao jose dos campos jardim oriente;Rua Andorra;Jardim América;São José dos Campos;SP;Sudeste;12235-050;724.756;-23.2322233;-45.8971143;2662;49904;08/10/2025
cobasi;pet shop cobasi sao jose dos campos nelson davila;Avenida Doutor Nelson D'Avila;Jardim São Dimas;São José dos Campos;SP;Sudeste;12245-030;724.756;-23.1921926;-45.8853637;2662;49904;08/10/2025
cobasi;pet shop cobasi sao jose dos pinhais av. torres;Avenida das Torres;São Pedro;São José dos Pinhais;PR;Sul;83005-450;345.644;-25.535;-49.2065984598;2482;25506;08/10/2025
cobasi;pet shop cobasi sao judas;Avenida Jabaquara;Mirandópolis;São Paulo;SP;Sudeste;04045-003;11.895.578;-23.7784900271;-46.3845725253;2662;50308;08/10/2025
cobasi;pet shop cobasi sao vicente;Avenida Presidente Wilson;Itararé;São Vicente;SP;Sudeste;11320-001;338.407;-23.9682565;-46.3762476;2662;51009;08/10/2025
cobasi;pet shop cobasi tambore;Alameda Araguaia;Alphaville Industrial;Barueri;SP;Sudeste;06455-000;330.339;-23.5220700085;-46.876;2662;5708;08/10/2025
cobasi;pet shop cobasi tatuape;Rua Visconde de Itaboraí;Vila Azevedo;São Paulo;SP;Sudeste;03308-050;11.895.578;-23.6987500219;-46.636;2662;50308;08/10/2025
cobasi;pet shop cobasi taubate;Avenida Dom Pedro I;Terra Nova;Taubaté;SP;Sudeste;12081-810;321.298;-23.0295331;-45.538758;2662;54102;08/10/2025
cobasi;pet shop cobasi taubate ii;Avenida Charles Schnneider;Parque Senhor do Bonfim;Taubaté;SP;Sudeste;12040-000;321.298;-23.0315669;-45.59953;2662;54102;08/10/2025
cobasi;pet shop cobasi teodoro sampaio;Rua Navarro de Andrade;Pinheiros;São Paulo;SP;Sudeste;05418-020;11.895.578;-23.1446199568;-47.07602262;2662;50308;08/10/2025
cobasi;pet shop cobasi teotonio vilela;Avenida Senador Teotônio Vilela;Vila São José (Cidade Dutra);São Paulo;SP;Sudeste;04833-000;11.895.578;-23.8776700373;-46.636;2662;50308;08/10/2025
cobasi;pet shop cobasi tutoia;Rua Tutóia;Vila Mariana;São Paulo;SP;Sudeste;04007-002;11.895.578;-23.3221899761;-46.3896776545;2662;50308;08/10/2025
cobasi;pet shop cobasi uberaba;Praça Santos Dumont;Santos Dumont;Uberaba;MG;Sudeste;38050-590;354.142;-19.7473668;-47.939154;2001;70107;08/10/2025
cobasi;pet shop cobasi uberlandia;Avenida Rondon Pacheco;Tabajaras;Uberlândia;MG;Sudeste;38400-242;754.954;-18.9176448;-48.2657238;2001;70206;08/10/2025
cobasi;pet shop cobasi valinhos;Rua Luiz Spiandorelli Neto;Loteamento Paiquerê;Valinhos;SP;Sudeste;13271-570;131.277;-22.9812024;-47.0127132;2662;56206;08/10/2025
cobasi;pet shop cobasi via parque shopping;Avenida Ayrton Senna 3000;Barra da Tijuca;Rio de Janeiro;RJ;Sudeste;22775-904;6.729.894;-22.9826942;-43.362939;2490;4557;08/10/2025
cobasi;pet shop cobasi viamao;Avenida Senador Salgado Filho;Querência;Viamão;RS;Sul;94440-000;232.113;-30.0855900029;-51.0283044136;2608;23002;08/10/2025
cobasi;pet shop cobasi vila velha;Rua Luciano das Neves 2418;Divino Espírito Santo;Vila Velha;ES;Sudeste;29107-900;502.899;-20.3477821;-40.2949528;2111;5200;08/10/2025
cobasi;pet shop cobasi villa lobos;Rua Manoel Velasco;Vila Hamburguesa;São Paulo;SP;Sudeste;05319-010;11.895.578;-23.939590043;-46.636;2662;50308;08/10/2025
cobasi;pet shop cobasi vinhedo;Estrada da Boiada;Santa Rosa;Vinhedo;SP;Sudeste;13289-020;79.235;-23.0314931;-46.9876299;2662;56701;08/10/2025
cobasi;pet shop cobasi varzea grande;Avenida Presidente Arthur Bernardes;Centro-Sul;Várzea Grande;MT;Centro-Oeste;78125-100;314.627;-15.6515199;-56.1323601;2276;8402;08/10/2025
cobasi;pet shop cobasi agua branca;Avenida Francisco Matarazzo;Água Branca;São Paulo;SP;Sudeste;05001-000;11.895.578;-23.1856599608;-47.0312545895;2662;50308;08/10/2025
cobasi;pet shop cobasi aguas claras;Avenida Sibipiruna;Sul (Águas Claras);Brasília;DF;Centro-Oeste;71928-720;2.982.818;-15.885750017;-48.0398915003;3444;108;08/10/2025
cobasi;pet shop mundo pet cobasi aldeota;Avenida Senador Virgílio Távora;Aldeota;Fortaleza;CE;Nordeste;60170-078;2.574.412;-3.7357094;-38.5069693;1225;4400;08/10/2025
cobasi;pet shop mundo pet cobasi batista campos;Travessa São Pedro;Campina;Belém;PA;Norte;66023-570;1.398.531;-1.4517346;-48.4999707;1344;1402;08/10/2025
cobasi;pet shop mundo pet cobasi brasilia aguas claras;Rua 35;Norte (Águas Claras);Brasília;DF;Centro-Oeste;71919-000;2.982.818;-15.8352342;-48.0367863;3444;108;08/10/2025
cobasi;pet shop mundo pet cobasi eusebio;av. eusebio de queiroz;;eusebio;CE;Nordeste;61765-070;80.304;;;1225;4285;08/10/2025
cobasi;pet shop mundo pet cobasi fortaleza washington soares;Avenida Washington Soares;Engenheiro Luciano Cavalcante;Fortaleza;CE;Nordeste;60810-350;2.574.412;-3.7749868;-38.4876205;1225;4400;08/10/2025
cobasi;pet shop mundo pet cobasi goiania oeste;Avenida Portugal;Setor Oeste;Goiânia;GO;Centro-Oeste;74140-020;1.494.599;-16.6890379;-49.2702758;2098;8707;08/10/2025
cobasi;pet shop mundo pet cobasi manaira shopping;Avenida Governador Flávio Ribeiro Coutinho;Parque Verde;Cabedelo;PB;Nordeste;58102-835;70.067;-6.9877215;-34.8287221;1401;3209;08/10/2025
cobasi;pet shop mundo pet cobasi salvador graca;Avenida Euclydes da Cunha;Graça;Salvador;BA;Nordeste;40150-120;2.568.928;-12.9979705;-38.5200581;1366;27408;08/10/2025
cobasi;pet shop mundo pet cobasi salvador shopping;Avenida Tancredo Neves 2915;Caminho das Árvores;Salvador;BA;Nordeste;41820-910;2.568.928;-12.9816038;-38.4643358;1366;27408;08/10/2025
cobasi;pet shop mundo pet cobasi tirol natal;Avenida Prudente de Morais;Tirol;Natal;RN;Nordeste;59020-510;785.368;-5.8034577;-35.2011079;1616;8102;08/10/2025
cobasi;pet&facil washington luis;Avenida Washington Luís;Santo Amaro;São Paulo;SP;Sudeste;04627-002;11.895.578;-23.6371354;-46.670923;2662;50308;08/10/2025
petland;petland lins;Rua Dom Bosco;Vila Alta;Lins;SP;Sudeste;16400-505;76.729;-21.67198;-49.7574013;2662;27108;08/10/2025
petland;petland vila gumercindo;Rua Tupanaci;Vila Gumercindo;São Paulo;SP;Sudeste;04131-020;11.895.578;-23.548;-46.3742640957;2662;50308;08/10/2025
petland;petland textil;Avenida Guilherme Giorgi;Vila Carrão;São Paulo;SP;Sudeste;03422-001;11.895.578;-23.7120700169;-46.8149739476;2662;50308;08/10/2025
petland;petland menino deus;Avenida Getúlio Vargas;Menino Deus;Porto Alegre;RS;Sul;90150-002;1.389.322;-30.037680009;-51.23;2608;14902;08/10/2025
petland;petland arvoredo;Avenida Princesa Isabel;Parque Recreio;Contagem;MG;Sudeste;32110-000;649.975;-19.8792202;-44.0219003;2001;18601;08/10/2025
petland;petland lajeado;Avenida Benjamin Constant;Centro;Lajeado;RS;Sul;95900-056;96.651;-29.462995;-51.9668399;2608;11403;08/10/2025
petland;petland ipiranga;Rua Bom Pastor;Ipiranga;São Paulo;SP;Sudeste;04203-052;11.895.578;-23.2977099666;-46.9090260907;2662;50308;08/10/2025
petland;petland chacara santo antonio;Rua Cancioneiro Popular;Santo Amaro;São Paulo;SP;Sudeste;04710-000;11.895.578;-23.548;-46.9749018514;2662;50308;08/10/2025
petland;petland limeira;Rua Sete de Setembro;Centro;Limeira;SP;Sudeste;13480-150;300.728;-22.5665354;-47.3974368;2662;26902;08/10/2025
petland;petland vila mascote;Avenida Mascote;Vila Mascote;São Paulo;SP;Sudeste;04363-000;11.895.578;-23.2779999695;-46.3414734789;2662;50308;08/10/2025
petland;petland tude bastos;Avenida Irmãos Adorno;Sítio do Campo;Praia Grande;SP;Sudeste;11725-320;365.577;-23.9970893;-46.4217894;2662;41000;08/10/2025
petland;petland aracatuba;Rua Sarjob Mendes;Icaray;Araçatuba;SP;Sudeste;16020-360;207.775;-21.2236144;-50.4497105;2662;2804;08/10/2025
petland;petland grageru;Avenida Ministro Geraldo Barreto Sobral;Grageru;Aracaju;SE;Nordeste;49027-255;628.849;-10.9451838;-37.0624862;1473;308;08/10/2025
petland;petland alianca;Rua Bom Pastor;Ipiranga;São Paulo;SP;Sudeste;04203-052;11.895.578;-23.2977099666;-46.9090260907;2662;50308;08/10/2025
petland;petland outlet premium imigrantes;Estrada da Cama Patente;Alvarenga;São Bernardo do Campo;SP;Sudeste;09842-100;840.499;-23.694;-46.5388561919;2662;48708;08/10/2025
petland;petland vila a;Avenida Engenheiro Hildemar Leite França;Vila Residencial A;Foz do Iguaçu;PR;Sul;85860-320;295.500;-25.5384599903;-54.577426122;2482;8304;08/10/2025
petland;petland tapejara;;;Tapejara;RS;Sul;99950-000;25.201;-28.0678199995;-52.014;2608;20909;08/10/2025
petland;petland  sao mateus;Avenida Presidente Itamar Franco;São Mateus;Juiz de Fora;MG;Sudeste;36016-321;565.764;-21.768205;-43.3501397;2001;36702;08/10/2025
petland;petland rio branco;Avenida Doutor Ulysses Guimarães;Vila Nogueira;Diadema;SP;Sudeste;09990-080;404.118;-23.6715999944;-46.6072753633;2662;13801;08/10/2025
petland;petland parque sao lucas;Rua Francisco Fett;Vila Paulo Silas;São Paulo;SP;Sudeste;03264-000;11.895.578;-23.6929900171;-46.636;2662;50308;08/10/2025
petland;petland novo eldorado;Avenida Doutor Cincinato Cajado Braga;Novo Eldorado;Contagem;MG;Sudeste;32341-310;649.975;-19.9350502;-44.0526866;2001;18601;08/10/2025
petland;petland mexicao;Avenida Capitão-mor Aguiar;Centro;São Vicente;SP;Sudeste;11310-201;338.407;-23.9671961;-46.3915641;2662;51009;08/10/2025
petland;petland marco belem;Avenida Rômulo Maiorana;Marco;Belém;PA;Norte;66093-672;1.398.531;-1.4414112;-48.4655217;1344;1402;08/10/2025
petland;petland jardim das flores;Rua Osório Duque Estrada;Pestana;Osasco;SP;Sudeste;06122-000;756.952;-23.5401596;-46.7977195;2662;34401;08/10/2025
petland;petland horto florestal;Rua Izidro Roque da Silva Telo;Horto Florestal;Sorocaba;SP;Sudeste;18074-745;757.459;-23.5015299;-47.4525603;2662;52205;08/10/2025
petland;petland parque dos anjos;Avenida Antônio Gomes Correa;Parque dos Anjos;Gravataí;RS;Sul;94190-300;275.294;-29.9277099901;-50.9732005163;2608;9209;08/10/2025
petland;petland mongagua;;;Mongaguá;SP;Sudeste;11730-000;64.519;-24.1075246;-46.6801919;2662;31100;08/10/2025
petland;petland campo bom;;;Campo Bom;RS;Sul;93700-000;64.704;-29.6788945671;-51.0618405609;2608;3905;08/10/2025
petland;petland brasilio mall;Rua Brasílio Machado;Centro;São Bernardo do Campo;SP;Sudeste;09715-140;840.499;-23.700210005;-46.565;2662;48708;08/10/2025
petland;petland bom fim;Praça da Alfândega;Centro Histórico;Porto Alegre;RS;Sul;90010-150;1.389.322;-30.0327299961;-51.23;2608;14902;08/10/2025
petland;petland avenida t1;Avenida T 1;Setor Bueno;Goiânia;GO;Centro-Oeste;74210-025;1.494.599;-16.7004399;-49.276539;2098;8707;08/10/2025
petland;petland enseada;Avenida Dom Pedro I;Enseada;Guarujá;SP;Sudeste;11440-000;294.973;-23.9948444;-46.2568678;2662;18701;08/10/2025
petland;petland vinhais;Rua do Arame;Vinhais;São Luís;MA;Nordeste;65074-380;1.088.057;-2.5104119;-44.2504104;1077;11300;08/10/2025
petland;petland vila sao francisco;Avenida Martin Luther King;Cidade São Francisco;São Paulo;SP;Sudeste;05352-020;11.895.578;-23.9428300407;-46.2053040548;2662;50308;08/10/2025
petland;petland vila mirim;Rua Primeiro de Maio;Mirim;Praia Grande;SP;Sudeste;11704-710;365.577;-24.0285831;-46.4881622;2662;41000;08/10/2025
petland;petland vila madalena;Rua Natingui;Vila Madalena;São Paulo;SP;Sudeste;05443-001;11.895.578;-23.9543500441;-46.1927375876;2662;50308;08/10/2025
petland;petland presidente prudente;Rua Álvares Machado;Vila Euclides;Presidente Prudente;SP;Sudeste;19015-450;234.083;-22.1270737;-51.4009725;2662;41406;08/10/2025
petland;petland varginha;Avenida Francisco Navarra;Centro;Varginha;MG;Sudeste;37006-003;142.802;-21.5560669;-45.4368543;2001;70701;08/10/2025
petland;petland unai;Rua Eli Pinto de Carvalho;Cruzeiro;Unaí;MG;Sudeste;38616-010;90.724;-16.3661499;-46.899058;2001;70404;08/10/2025
petland;petland tirol;Avenida Hermes da Fonseca;Tirol;Natal;RN;Nordeste;59020-315;785.368;-5.8034577;-35.2011079;1616;8102;08/10/2025
petland;petland sao caetano do sul;Rua Rafael Correa Sampaio;Santa Paula;São Caetano do Sul;SP;Sudeste;09541-250;172.109;-23.6257900073;-46.551;2662;48807;08/10/2025
petland;petland santos dumont;;;Santos Dumont;MG;Sudeste;36240-000;43.392;-21.4662142;-43.5500883;2001;60702;08/10/2025
petland;petland santo antonio;Rua das Magnólias;Jardim Primavera;Guarujá;SP;Sudeste;11432-320;294.973;-23.9874056;-46.2717048;2662;18701;08/10/2025
petland;petland saboo;Rua Flaminio Levy;Saboó;Santos;SP;Sudeste;11085-080;429.567;-23.9331245;-46.3488019;2662;48500;08/10/2025
petland;petland presidente venceslau;;;Presidente Venceslau;SP;Sudeste;19400-000;35.902;-21.8737026;-51.8452266;2662;41505;08/10/2025
petland;petland presidente vargas;;;Presidente Venceslau;SP;Sudeste;19400-000;35.902;-21.8737026;-51.8452266;2662;41505;08/10/2025
petland;petland petropolis;Avenida Protásio Alves;Petrópolis;Porto Alegre;RS;Sul;90410-003;1.389.322;-30.0231899978;-51.2186686153;2608;14902;08/10/2025
petland;petland ilhabela;;;Ilhabela;SP;Sudeste;11630-000;36.329;-23.8158392;-45.3664809;2662;20400;08/10/2025
petland;petland perdizes;Rua Apinajés;Perdizes;São Paulo;SP;Sudeste;05017-000;11.895.578;-23.5394736427;-46.6817360327;2662;50308;08/10/2025
petland;petland peninsula;Avenida São Marcos;São Marcos;São Luís;MA;Nordeste;65077-310;1.088.057;-2.4882276;-44.2982047;1077;11300;08/10/2025
petland;petland pedro marques;Rua Pedro Marques;Centro;Itapetininga;SP;Sudeste;18200-270;163.774;-23.589346;-48.0445597;2662;22307;08/10/2025
petland;petland santana pedro doll;Rua Pedro Doll;Santana;São Paulo;SP;Sudeste;02404-000;11.895.578;-23.4764499904;-46.5579504702;2662;50308;08/10/2025
petland;petland paulista;Rua Bela Cintra;Consolação;São Paulo;SP;Sudeste;01415-001;11.895.578;-23.5524085573;-46.655224424;2662;50308;08/10/2025
petland;petland parque das americas;Rua Bolívia;Parque das Américas;Mauá;SP;Sudeste;09350-636;429.380;-23.6604399964;-46.4527457021;2662;29401;08/10/2025
petland;petland papini;Rua Cambuci do Vale;Cidade Dutra;São Paulo;SP;Sudeste;04805-110;11.895.578;-23.8699300338;-46.2848262141;2662;50308;08/10/2025
petland;petland nicomedes;Avenida Nicomedes Alves dos Santos;Morada da Colina;Uberlândia;MG;Sudeste;38411-106;754.954;-18.9631213;-48.2736062;2001;70206;08/10/2025
petland;petland nebraska;Rua Nebraska;Brooklin Novo;São Paulo;SP;Sudeste;04560-010;11.895.578;-23.6124075642;-46.6789609418;2662;50308;08/10/2025
petland;petland matozinhos;Avenida Tomé Portes Del Rei;Vila Santo Antônio (Matozinhos);São João Del Rei;MG;Sudeste;36305-058;94.062;-21.1256939;-44.2372126;2001;62500;08/10/2025
petland;petland pinheiros – mateus grou;Rua Mateus Grou;Pinheiros;São Paulo;SP;Sudeste;05415-050;11.895.578;-23.9510200413;-46.636;2662;50308;08/10/2025
petland;petland jose menino;Rua Rei Jorge VI;José Menino;Santos;SP;Sudeste;11065-310;429.567;-23.967423;-46.3560768;2662;48500;08/10/2025
petland;petland jasmim;Rua Jasmim;Chácara Primavera;Campinas;SP;Sudeste;13087-460;1.185.977;-22.8554178;-47.0486638;2662;9502;08/10/2025
petland;petland jardim dos colibris;Avenida Josué Ferreira da Silva;Jardim dos Colibris;Indaiatuba;SP;Sudeste;13349-125;267.796;-23.119243;-47.2547852;2662;20509;08/10/2025
petland;petland janga;Avenida Doutor Cláudio José Gueiros Leite;Janga;Paulista;PE;Nordeste;53437-000;362.960;-7.9393032;-34.8249069;1453;10707;08/10/2025
petland;petland jaguaribe;Avenida Flora;Bussocaba;Osasco;SP;Sudeste;06053-130;756.952;-23.533;-46.7984788456;2662;34401;08/10/2025
petland;petland jaboticabeiras;Praça Marta de Miranda de El Rei;Padre Cursino;Taubaté;SP;Sudeste;12030-760;321.298;-23.0204559;-45.5563555;2662;54102;08/10/2025
petland;petland independencia;Avenida Independência;Independência;Taubaté;SP;Sudeste;12031-000;321.298;-23.0395693;-45.5688392;2662;54102;08/10/2025
petland;petland higienopolis;Praça Vilaboim;Higienópolis;São Paulo;SP;Sudeste;01241-010;11.895.578;-23.5565500015;-46.6453266737;2662;50308;08/10/2025
petland;petland guaianazes otelo;Rua Otelo Augusto Ribeiro;Guaianazes;São Paulo;SP;Sudeste;08412-000;11.895.578;-23.0261799449;-47.2052215857;2662;50308;08/10/2025
petland;petland jau;Rua General Isidoro;Chácara Braz Miraglia;Jaú;SP;Sudeste;17207-270;137.323;-22.2899353;-48.553312;2662;25300;08/10/2025
petland;petland garcia;Avenida Jorge Amado;Jardins;Aracaju;SE;Nordeste;49025-330;628.849;-10.9387749;-37.0531148;1473;308;08/10/2025
petland;petland formiga;Avenida Doutor Henrique Braga;Centro;Formiga;MG;Sudeste;35570-030;70.668;-20.4628628;-45.4325227;2001;26109;08/10/2025
petland;petland santa rosa;Avenida Expedicionário Weber;Central;Santa Rosa;RS;Sul;98787-000;79.395;-27.8616407;-54.454857;2608;17202;08/10/2025
petland;petland dom nery;Rua Dom Nery;Vila Embaré;Valinhos;SP;Sudeste;13271-170;131.277;-22.9684707;-47.0011055;2662;56206;08/10/2025
petland;petland dom joaquim;Avenida Dom Joaquim;Centro;Pelotas;RS;Sul;96020-260;336.131;-31.7450526;-52.336725;2608;14407;08/10/2025
petland;petland dom bosco;Avenida Brigadeiro Eduardo Gomes;Dom Bosco;Belo Horizonte;MG;Sudeste;30850-222;2.416.339;-19.9154186;-44.0008902;2001;6200;08/10/2025
petland;petland cupece;Avenida Cupecê;Jardim Prudência;São Paulo;SP;Sudeste;04365-000;11.895.578;-23.2778199652;-46.636;2662;50308;08/10/2025
petland;petland cidade nova;Rua Armando Salles de Oliveira;Vila Todos os Santos;Indaiatuba;SP;Sudeste;13330-585;267.796;-23.079944;-47.2172921;2662;20509;08/10/2025
petland;petland bento goncalves;Rua Olavo Bilac;Cidade Alta;Bento Gonçalves;RS;Sul;95700-362;127.775;-29.1719814;-51.5161829;2608;2105;08/10/2025
petland;petland canal 3;Avenida Washington Luís;Gonzaga;Santos;SP;Sudeste;11055-000;429.567;-23.9673822;-46.3328146;2662;48500;08/10/2025
petland;petland campo belo;Rua Conde de Porto Alegre;Campo Belo;São Paulo;SP;Sudeste;04608-002;11.895.578;-23.2493799671;-46.636;2662;50308;08/10/2025
petland;petland cambui;Rua dos Bandeirantes;Cambuí;Campinas;SP;Sudeste;13024-010;1.185.977;-22.8921264;-47.0546529;2662;9502;08/10/2025
petland;petland botucatu;Avenida Doutor Vital Brasil;Vila São Lúcio;Botucatu;SP;Sudeste;18603-193;150.442;-22.8841808;-48.4441654;2662;7506;08/10/2025
petland;petland bom retiro;Rua Olga Assunção;Novo Horizonte;Betim;MG;Sudeste;32606-016;429.236;-19.9444194;-44.204051;2001;6705;08/10/2025
petland;petland benjamin constant;Avenida Benjamin Constant;Floresta;Porto Alegre;RS;Sul;90550-005;1.389.322;-30.0463200085;-51.23;2608;14902;08/10/2025
petland;petland 13 de julho;;;aracaju;SE;Nordeste;49025-630;628.849;;;1473;308;08/10/2025
petland;petland batatais;;;batatais;SP;Sudeste;14300-000;59.873;;;2662;5906;08/10/2025
petland;petland barra muriae;Rua Gil Moreira;Barra;Muriaé;MG;Sudeste;36884-112;108.161;-21.1278887;-42.3824038;2001;43906;08/10/2025
petland;petland avenida brasil;Avenida Brasil;Vila Itapura;Campinas;SP;Sudeste;13023-075;1.185.977;-22.8990196;-47.0585262;2662;9502;08/10/2025
petland;petland araguaina;Rua Vinte e Cinco de Dezembro;Setor Central;Araguaína;TO;Norte;77804-030;181.493;-7.1901421;-48.2082624;1737;2109;08/10/2025
petland;petland analia franco;Rua Professor João de Oliveira Torres;Jardim Anália Franco;São Paulo;SP;Sudeste;03337-010;11.895.578;-23.3940999774;-46.636;2662;50308;08/10/2025
petland;petland aclimacao;Avenida da Aclimação;Aclimação;São Paulo;SP;Sudeste;01531-000;11.895.578;-23.5693300084;-46.6592676017;2662;50308;08/10/2025
petland;petland 5 de novembro;Avenida 5 de Novembro;Vila Nastri;Itapetininga;SP;Sudeste;18207-320;163.774;-23.6014345;-48.0617431;2662;22307;08/10/2025
petland;petland vila mariana;Avenida Conselheiro Rodrigues Alves;Vila Mariana;São Paulo;SP;Sudeste;04014-011;11.895.578;-23.548;-46.3884013667;2662;50308;08/10/2025
petland;petland vila clementino;Rua Luís Góis;Mirandópolis;São Paulo;SP;Sudeste;04043-350;11.895.578;-23.548;-46.3847688792;2662;50308;08/10/2025
petland;petland turu;Avenida São Luís Rei de França;Turu;São Luís;MA;Nordeste;65065-470;1.088.057;-2.5607800101;-44.303;1077;11300;08/10/2025
petland;petland tatuape;Rua Azevedo Soares;Vila Gomes Cardim;São Paulo;SP;Sudeste;03322-002;11.895.578;-23.3955399838;-46.636;2662;50308;08/10/2025
petland;petland sinop;Avenida das Itaúbas;Setor Comercial;Sinop;MT;Centro-Oeste;78550-196;216.029;-11.8543759;-55.5107714;2276;7909;08/10/2025
petland;petland rudge ramos;Avenida Caminho do Mar;Rudge Ramos;São Bernardo do Campo;SP;Sudeste;09609-000;840.499;-23.694540002;-46.565;2662;48708;08/10/2025
petland;petland rio madeira;Avenida Prefeito Chiquilito Erse;Embratel;Porto Velho;RO;Norte;76820-763;514.873;-8.7493383;-63.8847376;1717;205;08/10/2025
petland;petland renascenca;Avenida Jornalista Miércio Jorge;Jardim Renascença;São Luís;MA;Nordeste;65075-675;1.088.057;-2.4986283;-44.2879209;1077;11300;08/10/2025
petland;petland canal 6;Avenida Doutor Epitácio Pessoa;Boqueirão;Santos;SP;Sudeste;11045-301;429.567;-23.9648026;-46.3235849;2662;48500;08/10/2025
petland;petland pompeia;Rua Euclides da Cunha;Pompéia;Santos;SP;Sudeste;11065-101;429.567;-23.9665048;-46.3421313;2662;48500;08/10/2025
petland;petland pedreira;;;Pedreira;SP;Sudeste;13920-000;44.332;-22.7418249;-46.8952876;2662;37107;08/10/2025
petland;petland passos;Praça Geraldo da Silva Maia;Centro;Passos;MG;Sudeste;37900-096;116.530;-20.7222202;-46.6090216;2001;47907;08/10/2025
petland;petland parque pinheiros;Rua Doutor Mário Augusto Pereira;Jardim São Paulo;Taboão da Serra;SP;Sudeste;06767-330;284.274;-23.602;-46.7469106099;2662;52809;08/10/2025
petland;petland oficinas;;;ponta grossa;PR;Sul;84045-959;372.562;;;2482;19905;08/10/2025
petland;petland mooca;Avenida Paes de Barros;Mooca;São Paulo;SP;Sudeste;03114-000;11.895.578;-23.6774200144;-46.636;2662;50308;08/10/2025
petland;petland moema passaros;Avenida Pavão;Indianópolis;São Paulo;SP;Sudeste;04516-012;11.895.578;-23.8375300332;-46.9518306068;2662;50308;08/10/2025
petland;petland moema indios;Alameda dos Nhambiquaras;Indianópolis;São Paulo;SP;Sudeste;04090-011;11.895.578;-23.783080026;-46.3795655761;2662;50308;08/10/2025
petland;petland marape;Rua Godofredo Fraga;Marapé;Santos;SP;Sudeste;11070-400;429.567;-23.9556817;-46.3468306;2662;48500;08/10/2025
petland;petland praia grande mallet;Avenida Marechal Mallet;Canto do Forte;Praia Grande;SP;Sudeste;11700-405;365.577;-24.0070324;-46.4067837;2662;41000;08/10/2025
petland;petland mackenzie mall;Avenida Tucunaré;Tamboré;Barueri;SP;Sudeste;06460-020;330.339;-23.5225200027;-46.8885629334;2662;5708;08/10/2025
petland;petland joquei clube;Avenida Jóquei Clube;Jóquei;Teresina;PI;Nordeste;64049-240;902.644;-5.0745246;-42.784648;1350;11001;08/10/2025
petland;petland joao fiusa;Avenida Professor João Fiúsa;Jardim Botânico;Ribeirão Preto;SP;Sudeste;14024-250;728.400;-21.1704008;-47.8103238;2662;43402;08/10/2025
petland;petland jardins;Rua Bela Cintra;Consolação;São Paulo;SP;Sudeste;01415-001;11.895.578;-23.5524085573;-46.655224424;2662;50308;08/10/2025
petland;petland jaguariuna;Avenida Antonio Pinto Catão;Loteamento Capotuna;Jaguariúna;SP;Sudeste;13912-180;61.801;-22.6928981;-46.9804537;2662;24709;08/10/2025
petland;petland itarare;Avenida Presidente Wilson;Itararé;São Vicente;SP;Sudeste;11320-001;338.407;-23.9682565;-46.3762476;2662;51009;08/10/2025
petland;petland homero;Avenida Homero Castelo Branco;Planalto;Teresina;PI;Nordeste;64050-010;902.644;-5.056108;-42.7826894;1350;11001;08/10/2025
petland;petland guilhermina;Avenida Presidente Kennedy;Guilhermina;Praia Grande;SP;Sudeste;11702-205;365.577;-24.0072448;-46.4298225;2662;41000;08/10/2025
petland;petland graca;Rua da Graça;Graça;Salvador;BA;Nordeste;40150-055;2.568.928;-12.997443;-38.5255692;1366;27408;08/10/2025
petland;petland embare;Avenida Doutor Epitácio Pessoa;Boqueirão;Santos;SP;Sudeste;11045-300;429.567;-23.9648026;-46.3235849;2662;48500;08/10/2025
petland;petland canal 2;Avenida Doutor Bernardino de Campos;Campo Grande;Santos;SP;Sudeste;11065-003;429.567;-23.9582251;-46.3379206;2662;48500;08/10/2025
petland;petland canal 1;Avenida Senador Pinheiro Machado;Marapé;Santos;SP;Sudeste;11075-001;429.567;-23.9556817;-46.3468306;2662;48500;08/10/2025
petland;petland campolim;Avenida Antônio Carlos Comitre;Parque Campolim;Sorocaba;SP;Sudeste;18047-620;757.459;-23.5226839;-47.4649254;2662;52205;08/10/2025
petland;petland boqueirao;Rua Bento de Abreu;Boqueirão;Santos;SP;Sudeste;11045-140;429.567;-23.966871;-46.32075;2662;48500;08/10/2025
petland;petland batel;Rua Comendador Araújo;Centro;Curitiba;PR;Sul;80420-000;1.829.225;-25.4202599958;-49.273;2482;6902;08/10/2025
petland;petland aparecida;Rua Alexandre Martins;Aparecida;Santos;SP;Sudeste;11025-201;429.567;-23.9735381;-46.3055176;2662;48500;08/10/2025
petland;petland alphaville;Avenida Yojiro Takaoka;Alphaville;Santana de Parnaíba;SP;Sudeste;06541-038;162.341;-23.444;-46.9311451441;2662;47304;08/10/2025
petland;petland holandeses;Avenida dos Holandeses;Calhau;São Luís;MA;Nordeste;65071-380;1.088.057;-2.4935147;-44.2786188;1077;11300;08/10/2025
petland;petland cohatrac;Rua Doze;Cohatrac II;São Luís;MA;Nordeste;65053-820;1.088.057;-2.5382728;-44.2072109;1077;11300;08/10/2025
petland;petland cohama;Avenida Atlântica;Olho D'Água;São Luís;MA;Nordeste;65067-430;1.088.057;-2.4810648;-44.2364591;1077;11300;08/10/2025
