empresa;nome;logradouro;bairro;cidade;estado;cep;latitude;longitude;data_extracao
petz;Petz Abelardo Bueno;Avenida Embaixador Abelardo Bueno;Barra da Tijuca;Rio de Janeiro;RJ;22775-040;-22.9727518094;-43.3884886319;06/10/2025
petz;Petz Aclimação;Rua Muniz de Sousa;Aclimação;São Paulo;SP;01534-000;-23.5696900041;-46.636;06/10/2025
petz;Petz Afonso Pena;Avenida Bandeirantes;Amambaí;Campo Grande;MS;79005-671;-20.4697105;-54.6201211;06/10/2025
petz;Petz Agamenon;Avenida Governador Agamenon Magalhães;Boa Vista;Recife;PE;50050-290;-8.0559795;-34.8953473;06/10/2025
petz;Petz Águas Claras;Avenida Sibipiruna;Sul (Águas Claras);Brasília;DF;71928-720;-15.885750017;-48.0398915003;06/10/2025
petz;Petz Alameda Santos;Alameda Santos;Cerqueira César;São Paulo;SP;01419-001;-23.5326099937;-46.636;06/10/2025
petz;Petz Aldeota;Avenida Barão de Studart;Aldeota;Fortaleza;CE;60120-001;-3.7357094;-38.5069693;06/10/2025
petz;Petz Alphaville;Avenida Alphaville;Dezoito do Forte Empresarial/Alphaville.;Barueri;SP;06472-010;-23.5243200024;-46.8905258909;06/10/2025
petz;Petz Alto da Boa Vista;Avenida Adolfo Pinheiro;Santo Amaro;São Paulo;SP;04734-004;-23.8617400321;-46.2937601861;06/10/2025
petz;Petz Americana;Avenida Paulista;Vila Nossa Senhora de Fátima;Americana;SP;13478-580;-22.7376643;-47.3178178;06/10/2025
petz;Petz Ana Costa;Avenida Ana Costa;Gonzaga;Santos;SP;11060-001;-23.954249995;-46.334;06/10/2025
petz;Petz Anália Franco;Avenida Regente Feijó;Vila Regente Feijó;São Paulo;SP;03342-000;-23.7020800204;-46.8040764713;06/10/2025
petz;Petz Angélica;Avenida Angélica;Consolação;São Paulo;SP;01227-200;-23.5556500053;-46.636;06/10/2025
petz;Petz Anhaia Mello;Avenida Professor Luiz Ignácio Anhaia Mello;Vila Graciosa;São Paulo;SP;03295-000;-23.6981200203;-46.4722432506;06/10/2025
petz;Petz Aracaju;Avenida Ministro Geraldo Barreto Sobral 215;Jardins;Aracaju;SE;49026-900;-10.9438929;-37.0593452;06/10/2025
petz;Petz Araçatuba;Avenida Brasília;Jardim Nova Yorque;Araçatuba;SP;16018-000;-21.2028539;-50.4536793;06/10/2025
petz;Petz Araraquara;Avenida Padre Francisco Sales Colturato;Centro;Araraquara;SP;14802-000;-21.7848272;-48.1786486;06/10/2025
petz;Petz Arujá;Rua Tomi Saburo Yamamoto;Jardim das Cerejeiras;Arujá;SP;07432-575;-23.3950099976;-46.3220786898;06/10/2025
petz;Petz Assaí Anchieta;Rua Garcia Lorca;Paulicéia;São Bernardo do Campo;SP;09695-000;-23.6995800017;-46.5710936695;06/10/2025
petz;Petz Assaí Colinas;Avenida Jorge Zarur;Vila Ema;São José dos Campos;SP;12243-081;-23.2102831;-45.8969547;06/10/2025
petz;Petz Assaí Maracanã;Rua José Higino;Tijuca;Rio de Janeiro;RJ;20520-201;-22.9325728;-43.2410248;06/10/2025
petz;Petz Assaí Penha;Avenida São Miguel;Vila Marieta;São Paulo;SP;03620-000;-23.3633199789;-46.8374561407;06/10/2025
petz;Petz Assis Chateaubriand;Avenida Assis Chateaubriand;Setor Oeste;Goiânia;GO;74130-015;-16.6848554;-49.2714702;06/10/2025
petz;Petz Augusta;Rua Augusta;Consolação;São Paulo;SP;01305-000;-23.5367499961;-46.636;06/10/2025
petz;Petz Avenida das Américas Recreio;Rua César Lattes;Barra da Tijuca;Rio de Janeiro;RJ;22793-329;-23.0023912;-43.4245654;06/10/2025
petz;Petz Avenida do Contorno;Avenida do Contorno;Santa Efigênia;Belo Horizonte;MG;30110-017;-19.9139617;-43.9323353;06/10/2025
petz;Petz Avenida Dos Estados;Avenida dos Estados;Tamanduateí 8;Santo André;SP;09270-270;-23.694960006;-46.5041977288;06/10/2025
petz;Petz Avenida Goiás;Avenida Goiás;Santo Antônio;São Caetano do Sul;SP;09521-310;-23.623;-46.5496247537;06/10/2025
petz;Petz Avenida Interlagos;Avenida Interlagos;Jardim Marajoara;São Paulo;SP;04660-002;-23.8534600338;-46.3027923299;06/10/2025
petz;Petz Avenida Milão;Avenida Milão;Jardim Europa;Goiânia;GO;74325-030;-16.7092282;-49.313446;06/10/2025
petz;Petz Balneário Camboriú;Avenida do Estado Dalmo Vieira;Estados;Balneário Camboriú;SC;88339-060;-26.9737199957;-48.635;06/10/2025
petz;Petz Bandeirantes;Avenida dos Bandeirantes 2040;Vila Olímpia;São Paulo;SP;04553-902;-23.6192800094;-46.7137550031;06/10/2025
petz;Petz Bangu Shopping;Rua Fonseca;Bangu;Rio de Janeiro;RJ;21820-005;-22.8819709;-43.465515;06/10/2025
petz;Petz Barra Américas;Avenida das Américas;Barra da Tijuca;Rio de Janeiro;RJ;22793-080;-23.0141759;-43.4664789;06/10/2025
petz;Petz Barreiro;Avenida Sinfrônio Brochado;Barreiro;Belo Horizonte;MG;30640-000;-19.9768558;-44.0195832;06/10/2025
petz;Petz Bauru;Rua Rubens Pagani;Jardim Estoril IV;Bauru;SP;17016-210;-22.314459;-49.0586951;06/10/2025
petz;Petz Belém;Avenida Nazaré;Nazaré;Belém;PA;66035-445;-1.454061;-48.4812248;06/10/2025
petz;Petz Belford Roxo;Avenida Prefeito Jorge Júlio Costa dos Santos;Centro;Belford Roxo;RJ;26130-010;-22.7645391;-43.3996264;06/10/2025
petz;Petz Bento Gonçalves;R. Fortaleza, 362;Botafogo;Bento Gonçalves;RS;invalido;;;06/10/2025
petz;Petz BestCenter Jacareí;Rua Barão de Jacareí;Centro;Jacareí;SP;12308-000;-23.2987827;-45.9662542;06/10/2025
petz;Petz Betim;Avenida Juiz Marco Túlio Isaac;Jardim das Alterosas 1ª Seção;Betim;MG;32671-072;-19.9673078;-44.2011904;06/10/2025
petz;Petz Blumenau;Rua São Paulo;Itoupava Seca;Blumenau;SC;89030-001;-26.919;-49.0579250549;06/10/2025
petz;Petz Boa Viagem;Avenida Boa Viagem;Boa Viagem;Recife;PE;51020-000;-8.1099616;-34.8891379;06/10/2025
petz;Petz Bosque Maia;Avenida Paulo Faccini;Macedo;Guarulhos;SP;07111-000;-23.4836100077;-46.533;06/10/2025
petz;Petz Botafogo;Rua General Polidoro;Botafogo;Rio de Janeiro;RJ;22280-004;-22.9511149;-43.1809269;06/10/2025
petz;Petz Botucatu;Avenida Doutor Vital Brasil;Vila São Lúcio;Botucatu;SP;18603-193;-22.8841808;-48.4441654;06/10/2025
petz;Petz Brasília Asa Norte;Setor STN;Asa Norte;Brasília;DF;70770-100;-15.7333775;-47.8970566;06/10/2025
petz;Petz Brasília Epia;Setor de Postos e Motéis Sul I;Setor de Postos e Motéis Sul (Núcleo Bandeirante);Brasília;DF;71738-010;-15.8711088;-47.9709785;06/10/2025
petz;Petz Brasília Jardim Botânico;Quadra 1 Lote E;Setor Habitacional Jardim Botânico;Brasília;DF;71681-025;-15.9064363;-47.8624914;06/10/2025
petz;Petz Brasília SIA;Trecho SIA Trecho 17 Rua 03;Zona Industrial (Guará);Brasília;DF;71200-207;-15.7786295;-47.9408608;06/10/2025
petz;Petz Brasília W3 Norte;Quadra EQS 414/415;Asa Sul;Brasília;DF;70297-400;-15.7906787664;-47.8930069733;06/10/2025
petz;Petz Brusque;Rua Gustavo Schlosser;Centro II;Brusque;SC;88353-020;-27.0929599984;-48.9123385317;06/10/2025
petz;Petz Bueno T63;Avenida T 63;Setor Bueno;Goiânia;GO;74230-105;-16.7004399;-49.276539;06/10/2025
petz;Petz Butantã;Avenida Professor Francisco Morato;Butantã;São Paulo;SP;05512-200;-23.9588500473;-46.1878288093;06/10/2025
petz;Petz Cambuí;Avenida Doutor Moraes Salles;Jardim Guarani;Campinas;SP;13100-201;-22.9060289;-47.0461989;06/10/2025
petz;Petz Campinas Norte Sul;Avenida José de Souza Campos;Nova Campinas;Campinas;SP;13092-123;-22.9040083;-47.0400589;06/10/2025
petz;Petz Campo Grande;Avenida Afonso Pena;Chácara Cachoeira;Campo Grande;MS;79040-010;-20.4643395;-54.579342;06/10/2025
petz;Petz Campo Grande Rio;Rua João Barbosa de Morais;Campo Grande;Rio de Janeiro;RJ;23040-125;-22.9230245;-43.5495864;06/10/2025
petz;Petz Canoas;Avenida Doutor Sezefredo Azambuja Vieira;Marechal Rondon;Canoas;RS;92020-020;-29.9175499937;-51.184519194;06/10/2025
petz;Petz Caraguatatuba;Rua Vereador Antônio Cruz Arouca;Indaiá;Caraguatatuba;SP;11665-100;-23.6267599;-45.4234501;06/10/2025
petz;Petz Carapicuíba;Avenida Inocêncio Seráfico;Vila Silva Ribeiro;Carapicuíba;SP;06380-021;-23.5378500086;-46.836;06/10/2025
petz;Petz Carlos Berta;Rua Antônio Carlos Berta;Jardim Europa;Porto Alegre;RS;91340-020;-30.033;-51.279379889;06/10/2025
petz;Petz Carlos Luz;Avenida Presidente Carlos Luz;Caiçaras;Belo Horizonte;MG;31230-010;-19.9012987;-43.9667394;06/10/2025
petz;Petz Carrefour Anchieta;Via Anchieta, 3398;Vila Vermelha;São Paulo;SP;04246-900;-23.4902199938;-46.5729713249;06/10/2025
petz;Petz Carrefour Imigrantes;Rua Alfredo de Salles Oliveira Netto;Vila do Bosque;São Paulo;SP;04147-020;-23.3060799704;-46.636;06/10/2025
petz;Petz Carrefour Manilha;Rua Oliveira Botelho;Neves (Neves);São Gonçalo;RJ;24425-005;-22.8544152;-43.0977581;06/10/2025
petz;Petz Carrefour Ribeirão Shopping;Avenida Coronel Fernando Ferreira Leite;Jardim Califórnia;Ribeirão Preto;SP;14026-020;-21.2041684;-47.8255301;06/10/2025
petz;Petz Carrefour São Caetano;Avenida do Estado;Prosperidade;São Caetano do Sul;SP;09550-400;-23.6198499977;-46.5544381091;06/10/2025
petz;Petz Carrefour Tietê;Avenida Morvan Dias de Figueiredo 3177;Vila Guilherme;São Paulo;SP;02063-902;-23.548;-46.6583840199;06/10/2025
petz;Petz Cascavel;Avenida Brasil;Centro;Cascavel;PR;85812-000;-24.956;-53.4629414822;06/10/2025
petz;Petz Castelo;Av. Pres. Tancredo Neves, 3005;Paquetá;Belo Horizonte;MG;invalido;;;06/10/2025
petz;Petz Catuai Londrina;Rodovia Mabio Gonçalves Palhano;Gleba Fazenda Palhano;Londrina;PR;86055-585;-23.31;-51.1395782472;06/10/2025
petz;Petz Cavalhada;Avenida Eduardo Prado;Cavalhada;Porto Alegre;RS;91751-000;-30.033;-51.1583731786;06/10/2025
petz;Petz Caxias do Sul;Avenida Ruben Bento Alves;Cinqüentenário;Caxias do Sul;RS;95012-393;-29.1745107;-51.207829;06/10/2025
petz;Petz Ceilândia;Quadra Q 1;Setor de Desenvolvimento Econômico (Taguatinga);Brasília;DF;72145-100;-15.8096826;-48.0897558;06/10/2025
petz;Petz Center Minas;Avenida Pastor Anselmo Silvestre;Dom Joaquim;Belo Horizonte;MG;31170-678;-19.8790939;-43.9177407;06/10/2025
petz;Petz Center Shopping Uberlândia;Avenida João Naves de Ávila;Tibery;Uberlândia;MG;38405-140;-18.9011105;-48.2511641;06/10/2025
petz;Petz Cerro Corá;Rua Cerro Corá;Vila Romana;São Paulo;SP;05061-300;-23.1801699588;-47.037243297;06/10/2025
petz;Petz Chapecó;Avenida Fernando Machado - D;Centro;Chapecó;SC;89802-111;-27.0947399993;-52.6194153421;06/10/2025
petz;Petz Cidade Jardim;Avenida dos Tajurás;Cidade Jardim;São Paulo;SP;05670-000;-23.1187899568;-46.1678010127;06/10/2025
petz;Petz Congonhas;Avenida Moreira Guimarães;Indianópolis;São Paulo;SP;04074-030;-23.7813700242;-46.3814309126;06/10/2025
petz;Petz Contagem;Avenida Babita Camargos;Cidade Industrial;Contagem;MG;32210-180;-19.9511138;-44.0258233;06/10/2025
petz;Petz Contagem João Cesar;Avenida João César de Oliveira;Beatriz;Contagem;MG;32040-000;-19.9249966;-44.0609614;06/10/2025
petz;Petz Continente;Rua Martinho Boschetti;Picadas do Sul;São José;SC;88106-110;-27.6186000056;-48.628;06/10/2025
petz;Petz Copacabana;Avenida Nossa Senhora de Copacabana;Copacabana;Rio de Janeiro;RJ;22070-012;-22.9697777;-43.1868592;06/10/2025
petz;Petz Cotia;Rodovia Raposo Tavares;Lageadinho;Cotia;SP;06709-015;-23.5966199947;-46.9270538309;06/10/2025
petz;Petz Criciúma;Avenida Centenário;Centro;Criciúma;SC;88801-001;-28.6803626913;-49.3671297486;06/10/2025
petz;Petz Cristiano Machado;Rua José Vieira Muniz;Floramar;Belo Horizonte;MG;31742-005;-19.8307058;-43.9388814;06/10/2025
petz;Petz Diadema;Avenida Fábio Eduardo Ramos Esquivel;Centro;Diadema;SP;09920-578;-23.6886100049;-46.6258500946;06/10/2025
petz;Petz Diário de Notícias;Avenida Diário de Notícias;Cristal;Porto Alegre;RS;90810-080;-30.0504600069;-51.2098322109;06/10/2025
petz;Petz Divinópolis;Rua Minas Gerais;Centro;Divinópolis;MG;35500-007;-20.1451261;-44.8916447;06/10/2025
petz;Petz Djalma Batista;Avenida Djalma Batista;Chapada;Manaus;AM;69050-010;-3.0967957;-60.0288373;06/10/2025
petz;Petz Dom Pedro;Avenida Guilherme Campos 500;Jardim Santa Genebra;Campinas;SP;13087-901;-22.9099384;-47.0626332;06/10/2025
petz;Petz Dourados;Avenida Marcelino Pires;Jardim Caramuru;Dourados;MS;79830-000;-22.223561;-54.8125486;06/10/2025
petz;Petz Edgar Facó;Avenida General Edgar Facó;Vila Pereira Cerca;São Paulo;SP;02924-400;-23.548;-46.757050399;06/10/2025
petz;Petz Enseada;Avenida Santa Maria;Enseada;Guarujá;SP;11440-110;-23.9869736;-46.2463403;06/10/2025
petz;Petz Estação Goiânia;Avenida Goiás;Setor Central;Goiânia;GO;74010-010;-16.6716683;-49.2562665;06/10/2025
petz;Petz Fernando Corrêa;Avenida Fernando Correa da Costa;Pico do Amor;Cuiabá;MT;78065-000;-15.6014109;-56.0978917;06/10/2025
petz;Petz Ferraz de Vasconcelos;Avenida Brasil;Vila Romanópolis;Ferraz de Vasconcelos;SP;08529-310;-23.536859992;-46.3644841588;06/10/2025
petz;Petz Florianópolis;Rodovia José Carlos Daux;Saco Grande;Florianópolis;SC;88032-005;-27.597;-48.5435160762;06/10/2025
petz;Petz Foz do Iguaçu;Rua Alfredo Nunes do Nascimento;Jardim Polo Centro;Foz do Iguaçu;PR;85863-754;-25.541339996;-54.5953817609;06/10/2025
petz;Petz Franca;Rua Professora Suzana Ribeiro Sandoval;Vila Champagnat;Franca;SP;14400-190;-20.5494525;-47.4037878;06/10/2025
petz;Petz Gama Leste;Quadra Quadra 1;Setor Industrial (Gama);Brasília;DF;72445-010;-16.0136169;-48.059985;06/10/2025
petz;Petz Gastão Vidigal;Avenida Doutor Gastão Vidigal;Vila Leopoldina;São Paulo;SP;05314-000;-23.939320047;-47.0628671078;06/10/2025
petz;Petz Gilberto Salomão;SHIS QI 5 Bloco F;Setor de Habitações Individuais Sul;Brasília;DF;71615-560;-15.7942287;-47.8821658;06/10/2025
petz;Petz Giovanni Gronchi;Avenida Giovanni Gronchi;Morumbi;São Paulo;SP;05651-002;-23.1205899546;-47.1022354799;06/10/2025
petz;Petz Giovanni Pirelli;Rua Giovanni Battista Pirelli;Vila Homero Thon;Santo André;SP;09111-340;-23.6733600058;-46.5482192956;06/10/2025
petz;Petz Governador Valadares;Avenida Brasil;Centro;Governador Valadares;MG;35010-070;-18.8695636;-41.9543122;06/10/2025
petz;Petz Gravataí;Avenida Dorival Cândido Luz de Oliveira;COHAB C;Gravataí;RS;94030-000;-29.9415699933;-50.9891956511;06/10/2025
petz;Petz Guarujá;Avenida Adhemar de Barros;Vila Santa Rosa;Guarujá;SP;11430-003;-23.9908312;-46.2809014;06/10/2025
petz;Petz Guarulhos;Rua Guarulhos;Gopoúva;Guarulhos;SP;07022-020;-23.463;-46.5312339725;06/10/2025
petz;Petz Guarulhos Pimentas;Estrada Presidente Juscelino Kubitschek de Oliveira;Jardim Albertina;Guarulhos;SP;07252-000;-23.5301400125;-46.6061916931;06/10/2025
petz;Petz Hiper Sales Aracaju;Avenida Augusto Franco;Ponto Novo;Aracaju;SE;49097-670;-10.9349279;-37.075392;06/10/2025
petz;Petz Hortolândia;Avenida Santana;Parque Ortolândia;Hortolândia;SP;13184-210;-22.8828875;-47.2308623;06/10/2025
petz;Petz Iguatemi Esplanada;Avenida Gisele Constantino;Parque Bela Vista;Votorantim;SP;18110-650;-23.5458282;-47.4670805;06/10/2025
petz;Petz Ilha do Governador;Estrada do Galeão;Jardim Carioca;Rio de Janeiro;RJ;21931-524;-22.8070469;-43.197542;06/10/2025
petz;Petz Indaiatuba;Alameda Filtros Mann;Jardim Tropical;Indaiatuba;SP;13344-580;-23.1153736;-47.2182994;06/10/2025
petz;Petz Independência Shopping;Avenida Presidente Itamar Franco;São Mateus;Juiz de Fora;MG;36025-290;-21.7722581;-43.353661;06/10/2025
petz;Petz Ipatinga;Rua Cláudio Moura;Novo Cruzeiro;Ipatinga;MG;35164-840;-19.4750305;-42.5374761;06/10/2025
petz;Petz Ipiranga;Avenida Presidente Tancredo Neves;Vila Nancy;São Paulo;SP;04287-010;-23.2887099681;-46.9188436387;06/10/2025
petz;Petz Itaim;Rua Bandeira Paulista;Itaim Bibi;São Paulo;SP;04532-003;-23.8387900308;-46.9532050611;06/10/2025
petz;Petz Itajaí;Avenida Vereador Abrahão João Francisco;Ressacada;Itajaí;SC;88307-302;-26.9148400041;-48.6696704504;06/10/2025
petz;Petz Itanhaém;Av. Rui Barbosa, 540;Centro;Itanhaém;SP;11740-000;-24.1817994;-46.7850334;06/10/2025
petz;Petz Itapecerica;Estrada de Itapecerica;Vila das Belezas;São Paulo;SP;05835-003;-23.1005199541;-47.1241286159;06/10/2025
petz;Petz Itapetininga;Avenida Peixoto Gomide;Centro;Itapetininga;SP;18200-160;-23.5870635;-48.0480516;06/10/2025
petz;Petz Itatiba;Avenida Marechal Castelo Branco;Jardim da Luz;Itatiba;SP;13255-350;-23.0244035;-46.8402896;06/10/2025
petz;Petz Itu;Avenida Doutor Otaviano Pereira Mendes;Liberdade;Itu;SP;13301-000;-23.2588;-47.2989196;06/10/2025
petz;Petz Jaboatão dos Guararapes;Avenida Ayrton Senna da Silva;Piedade;Jaboatão dos Guararapes;PE;54420-700;-8.1801557;-34.9203383;06/10/2025
petz;Petz Jacu Pêssego;Avenida Jacu-Pêssego;Itaquera;São Paulo;SP;08215-115;-23.5358836;-46.4523686;06/10/2025
petz;Petz Jaguaré;Avenida Corifeu de Azevedo Marques;Vila Lageado;São Paulo;SP;05339-003;-23.9419300478;-46.2062858021;06/10/2025
petz;Petz Jardim Botânico;Rua Jardim Botânico;Jardim Botânico;Rio de Janeiro;RJ;22470-051;-22.9068467;-43.1728965;06/10/2025
petz;Petz Jardim Icaraí;Rua Doutor Paulo César;Santa Rosa;Niterói;RJ;24240-000;-22.8987588;-43.0985184;06/10/2025
petz;Petz Jaú;Avenida Doutor Quinzinho;Chácara Peccioli;Jaú;SP;17210-110;-22.2992648;-48.5446869;06/10/2025
petz;Petz João Firmino;Avenida João Firmino;Assunção;São Bernardo do Campo;SP;09810-250;-23.7116400034;-46.5842638563;06/10/2025
petz;Petz João Pessoa;Avenida Senador Ruy Carneiro;Manaíra;João Pessoa;PB;58039-180;-7.1121567;-34.828319;06/10/2025
petz;Petz Joinville;Alameda Rolf Colin;América;Joinville;SC;89204-070;-26.3011199952;-48.846;06/10/2025
petz;Petz Juiz de Fora;Avenida Barão do Rio Branco;Alto dos Passos;Juiz de Fora;MG;36026-500;-21.776524;-43.3473578;06/10/2025
petz;Petz Jundiaí;Avenida Antônio Frederico Ozanan;Vila de Vito;Jundiaí;SP;13215-010;-23.1719746;-46.8883514;06/10/2025
petz;Petz Jundiaí Anhanguera;Avenida Doutor Adilson Rodrigues;Jardim das Samambaias;Jundiaí;SP;13211-685;-23.1920386436;-46.9079545957;06/10/2025
petz;Petz Lauzane Paulista;Avenida Direitos Humanos;Imirim;São Paulo;SP;02475-001;-23.6281900094;-46.7234743771;06/10/2025
petz;Petz Limão;Avenida Otaviano Alves de Lima;Casa Verde Baixa;São Paulo;SP;02501-000;-23.5145404;-46.6646472;06/10/2025
petz;Petz Linha Verde;Avenida Caviúna;Bairro Alto;Curitiba;PR;82840-123;-25.4929800105;-49.3449501394;06/10/2025
petz;Petz Litoral Plaza;Avenida Ayrton Senna da Silva;Sítio do Campo;Praia Grande;SP;11726-000;-23.99403;-46.4061432;06/10/2025
petz;Petz Londrina Tiradentes;Avenida Tiradentes;Rodocentro;Londrina;PR;86071-000;-23.3385300098;-51.131934327;06/10/2025
petz;Petz Manuel Gaya;Rua Manuel Gaya;Vila Nova Mazzei;São Paulo;SP;02313-000;-23.6060500137;-46.5726767902;06/10/2025
petz;Petz Maraponga;Avenida Godofredo Maciel;Maraponga;Fortaleza;CE;60710-684;-3.7930657;-38.5658738;06/10/2025
petz;Petz Marechal Tito;Avenida Marechal Tito;Itaim Paulista;São Paulo;SP;08115-100;-23.0675799511;-46.636;06/10/2025
petz;Petz Marginal Tietê 24h;Rua Doutor Miguel Paulo Capalbo;Pari;São Paulo;SP;03035-040;-23.6722900173;-46.7715803788;06/10/2025
petz;Petz Maringá;Avenida Paraná;Zona 07;Maringá;PR;87020-085;-23.425;-51.9421386933;06/10/2025
petz;Petz Mateus Leme;Rua Mateus Leme;Bom Retiro;Curitiba;PR;80520-174;-25.4078125;-49.271846;06/10/2025
petz;Petz Mauro Ramos;Avenida Mauro Ramos;Centro;Florianópolis;SC;88020-302;-27.5947499957;-48.5464611447;06/10/2025
petz;Petz Miguel Sutil;Avenida Miguel Sutil;Jardim Mariana;Cuiabá;MT;78040-790;-15.5790011;-56.1097477;06/10/2025
petz;Petz Mogi das Cruzes;Avenida Francisco Rodrigues Filho;Botujuru;Mogi das Cruzes;SP;08840-000;-23.523;-46.2109687036;06/10/2025
petz;Petz Mogi Guaçu;Avenida Mogi Mirim;Areião;Mogi Guaçu;SP;13844-110;-22.379356;-46.9420796;06/10/2025
petz;Petz Moinhos de Vento;Rua Quintino Bocaiúva;Rio Branco;Porto Alegre;RS;90440-051;-30.0223799939;-51.217732992;06/10/2025
petz;Petz Mooca;Avenida Paes de Barros;Mooca;São Paulo;SP;03114-001;-23.6774200191;-46.777176384;06/10/2025
petz;Petz Mooca Plaza Shopping;Rua Capitão Pacheco e Chaves;Vila Prudente;São Paulo;SP;03126-000;-23.678230015;-46.493940041;06/10/2025
petz;Petz Morumbi;Rua Aureliano Guimarães;Vila Andrade;São Paulo;SP;05727-160;-23.9813500506;-46.636;06/10/2025
petz;Petz Nações Unidas;Avenida das Nações Unidas;Vila Almeida;São Paulo;SP;04795-100;-23.2268799659;-46.9862902068;06/10/2025
petz;Petz Natal;Avenida Senador Salgado Filho;Lagoa Nova;Natal;RN;59075-000;-5.8259362;-35.2099611;06/10/2025
petz;Petz Natal Zona Norte;Avenida Doutor João Medeiros Filho;Potengi;Natal;RN;59108-550;-5.7511801;-35.2551617;06/10/2025
petz;Petz Nordestina;Avenida Nordestina;Cidade Nova São Miguel;São Paulo;SP;08042-117;-23.548;-46.5018922575;06/10/2025
petz;Petz Norte Sul Plaza;Avenida Presidente Ernesto Geisel;Jardim Jockey Club;Campo Grande;MS;79080-105;-20.4697105;-54.6201211;06/10/2025
petz;Petz Nossa Senhora do Carmo;Avenida Nossa Senhora do Carmo;Carmo;Belo Horizonte;MG;30330-000;-19.9436545;-43.9323522;06/10/2025
petz;Petz Nova Iguaçu;Avenida Abílio Augusto Távora;Jardim Alvorada;Nova Iguaçu;RJ;26265-090;-22.7820278;-43.5390469;06/10/2025
petz;Petz Novo Hamburgo;Rua Castro Alves;Rio Branco;Novo Hamburgo;RS;93310-270;-29.6783600085;-51.1305856359;06/10/2025
petz;Petz Olinda;Rua Carmelita Soares Muniz de Araújo;Casa Caiada;Olinda;PE;53130-645;-7.9940002;-34.8400759;06/10/2025
petz;Petz Osasco;Avenida dos Autonomistas;Centro;Osasco;SP;06090-010;-23.5234599921;-46.8024054244;06/10/2025
petz;Petz Pacaembu;Praça Charles Miller;Pacaembu;São Paulo;SP;01234-010;-23.5398999919;-46.636;06/10/2025
petz;Petz Palmas;Quadra 101 Sul Avenida Joaquim Teotônio Segurado;Plano Diretor Sul;Palmas;TO;77015-002;-10.1902356;-48.3338925;06/10/2025
petz;Petz Pampulha;Avenida Professor Magalhães Penido;Aeroporto;Belo Horizonte;MG;31270-652;-19.8524132;-43.95509;06/10/2025
petz;Petz Pão de Açúcar Jabaquara;Avenida Engenheiro Armando de Arruda Pereira;Jabaquara;São Paulo;SP;04308-001;-23.548;-46.3504074528;06/10/2025
petz;Petz Parada de Taipas;Avenida Raimundo Pereira de Magalhães;Jardim Marilu;São Paulo;SP;02989-095;-23.548;-46.5062119762;06/10/2025
petz;Petz ParkShopping Brasília;SMAS;Zona Industrial (Guará);Brasília;DF;71219-900;-15.8332054737;-47.9561142456;06/10/2025
petz;Petz Parnamirim;Avenida Dezessete de Agosto;Parnamirim;Recife;PE;52060-590;-8.0334239;-34.9103805;06/10/2025
petz;Petz Parque Flamboyant;Avenida Deputado Jamel Cecílio;Jardim Goiás;Goiânia;GO;74810-100;-16.7062994;-49.2382611;06/10/2025
petz;Petz Parque Shopping Bahia;Avenida Santos Dumont;Centro;Lauro de Freitas;BA;42702-400;-12.8982314;-38.3314455;06/10/2025
petz;Petz Parque Shopping Maceió;Avenida Comendador Gustavo Paiva;Cruz das Almas;Maceió;AL;57038-000;-9.6294255;-35.6997298;06/10/2025
petz;Petz Passeio das Águas;Avenida Perimetral Norte;Fazenda Caveiras;Goiânia;GO;74445-360;-16.6313049729;-49.2774114112;06/10/2025
petz;Petz Pelotas;Avenida Ferreira Viana;Areal;Pelotas;RS;96085-000;-31.772;-52.3312491227;06/10/2025
petz;Petz Pereira Barreto;Rua Thales dos Santos Freire;Baeta Neves;São Bernardo do Campo;SP;09751-020;-23.6839199915;-46.576007925;06/10/2025
petz;Petz Pindamonhangaba;Avenida Doutor Jorge Tibiriçá;Chácara da Galega;Pindamonhangaba;SP;12422-050;-22.9251224;-45.4616987;06/10/2025
petz;Petz Piracicaba;Avenida Centenário;São Dimas;Piracicaba;SP;13416-000;-22.7103065;-47.6402638;06/10/2025
petz;Petz Pituba;Avenida Manoel Dias da Silva;Pituba;Salvador;BA;41830-001;-13.0078744;-38.4631582;06/10/2025
petz;Petz Plaza Avenida Shopping;Avenida José Munia;Jardim Redentor;São José do Rio Preto;SP;15085-350;-20.8458300049;-49.379;06/10/2025
petz;Petz Poços de Caldas;Avenida João Pinheiro;Centro;Poços de Caldas;MG;37701-387;-21.7844858;-46.5922018;06/10/2025
petz;Petz Pompeia;Avenida Francisco Matarazzo;Água Branca;São Paulo;SP;05001-200;-23.1855699588;-46.2406472328;06/10/2025
petz;Petz Ponta Verde;Avenida Professor Sandoval Arroxelas;Ponta Verde;Maceió;AL;57035-230;-9.6588449;-35.7042189;06/10/2025
petz;Petz Porto Velho Shopping;Avenida Prefeito Chiquilito Erse;Flodoaldo Pontes Pinto;Porto Velho;RO;76820-408;-8.7484671;-63.8729199;06/10/2025
petz;Petz Praia Grande;Av. Presidente Kennedy, 2900;Guilhermina;Praia Grande;SP;invalido;;;06/10/2025
petz;Petz Presidente Kennedy;Avenida Sargento Hermínio Sampaio;Presidente Kennedy;Fortaleza;CE;60355-503;-3.7299849;-38.5716667;06/10/2025
petz;Petz Presidente Prudente;Rua Barão do Rio Branco;Centro;Presidente Prudente;SP;19010-000;-22.121126;-51.393006;06/10/2025
petz;Petz Protásio Alves;Avenida Protásio Alves;Petrópolis;Porto Alegre;RS;91310-000;-30.033;-51.1824913472;06/10/2025
petz;Petz Radial Leste;Avenida Alcântara Machado;Brás;São Paulo;SP;03102-007;-23.510559996;-46.6768410107;06/10/2025
petz;Petz Raja Gabaglia;Avenida Raja Gabaglia;Santa Lúcia;Belo Horizonte;MG;30360-670;-19.9621872;-43.947033;06/10/2025
petz;Petz Ribeirão Independência;Avenida Independência;Jardim Sumaré;Ribeirão Preto;SP;14025-393;-21.1876768;-47.8069268;06/10/2025
petz;Petz Ribeirão Presidente Vargas;Avenida Presidente Vargas;Jardim Santa Ângela;Ribeirão Preto;SP;14020-525;-21.1704008;-47.8103238;06/10/2025
petz;Petz Ricardo Jafet;Avenida Doutor Ricardo Jafet;Ipiranga;São Paulo;SP;04260-000;-23.548;-46.3557089288;06/10/2025
petz;Petz Rio Claro;Avenida Presidente Kennedy;Estádio;Rio Claro;SP;13501-270;-22.4234127;-47.5625382;06/10/2025
petz;Petz Rio Grande;Avenida Presidente Vargas;Vila Junção;Rio Grande;RS;96202-188;-32.0346399957;-52.0994246715;06/10/2025
petz;Petz Riomar;Avenida Herculano Bandeira;Pina;Recife;PE;51110-131;-8.0941077;-34.8855697;06/10/2025
petz;Petz Rio Verde;Avenida Presidente Vargas;Jardim Presidente;Rio Verde;GO;75908-420;-17.8037892;-50.944611;06/10/2025
petz;Petz Rita Maria;Rua Henrique Valgas;Centro;Florianópolis;SC;88010-220;-27.596639995;-48.5485937783;06/10/2025
petz;Petz Roberto Freire;Rua Leôncio Etelvino de Medeiros;Capim Macio;Natal;RN;59078-570;-5.8521242;-35.203595;06/10/2025
petz;Petz Ruben Bento Alves;Av. Rubem Bento Alves, 3483;Universitário;Caxias do Sul;RS;invalido;;;06/10/2025
petz;Petz Salvador Bonocô;Avenida Mário Leal Ferreira;Brotas;Salvador;BA;40285-600;-12.9857613;-38.4998158;06/10/2025
petz;Petz Salvador Paralela;Avenida Luís Viana Filho;Imbuí;Salvador;BA;41720-200;-12.9683501;-38.4411764;06/10/2025
petz;Petz Samambaia do Sul;Quadra Quadra 302;Samambaia Sul (Samambaia);Brasília;DF;72300-630;-15.889003;-48.107767;06/10/2025
petz;Petz Santa Bárbara D'Oeste;Avenida Corifeu Azevedo Marques;Loteamento Colina Santa Bárbara;Santa Bárbara D'Oeste;SP;13450-088;-22.7584972;-47.4098806;06/10/2025
petz;Petz Santa Cecília;Avenida General Olímpio da Silveira;Santa Cecília;São Paulo;SP;01150-000;-23.542239996;-46.636;06/10/2025
petz;Petz Santa Maria;Avenida Hélvio Basso;Nossa Senhora Medianeira;Santa Maria;RS;97070-805;-29.6941700055;-53.807;06/10/2025
petz;Petz Santo André;Avenida Ramiro Colleoni;Centro;Santo André;SP;09040-160;-23.6659800058;-46.5401617791;06/10/2025
petz;Petz Santo André Dom Pedro;Avenida Dom Pedro II;Jardim;Santo André;SP;09080-110;-23.664;-46.5455662108;06/10/2025
petz;Petz Santos Dumont;Avenida Santos Dumont;Cocó;Fortaleza;CE;60192-018;-3.7465795;-38.4797835;06/10/2025
petz;Petz Santos Macuco;Rua Doutor Manoel Tourinho;Macuco;Santos;SP;11015-031;-23.9528844;-46.3183032;06/10/2025
petz;Petz São Bernardo;Avenida Rotary;Centro;São Bernardo do Campo;SP;09721-000;-23.694;-46.5571372016;06/10/2025
petz;Petz São Carlos;Avenida Francisco Pereira Lopes;Parque Santa Mônica;São Carlos;SP;13561-250;-22.0051411;-47.9020416;06/10/2025
petz;Petz São José do Rio Preto;Avenida Presidente Juscelino Kubitschek de Oliveira;Jardim Maracanã;São José do Rio Preto;SP;15092-175;-20.811761;-49.3762272;06/10/2025
petz;Petz São Leopoldo;Avenida Getúlio Vargas;Fião;São Leopoldo;RS;93020-566;-29.7750206;-51.1547076;06/10/2025
petz;Petz São Luís;Avenida Daniel de La Touche;Cohama;São Luís;MA;65074-115;-2.5137864;-44.2449287;06/10/2025
petz;Petz São Miguel;Avenida São Miguel;Vila Norma;São Paulo;SP;08070-001;-23.548;-46.1188114288;06/10/2025
petz;Petz São Vicente;Avenida Antônio Emmerick;Vila Cascatinha;São Vicente;SP;11390-001;-23.9609574;-46.3769929;06/10/2025
petz;Petz Seminário;Avenida Nossa Senhora Aparecida;Seminário;Curitiba;PR;80440-000;-25.428;-49.2638318291;06/10/2025
petz;Petz Serra;Avenida Eldes Scherrer Souza;Parque Residencial Laranjeiras;Serra;ES;29165-680;-20.1944911;-40.2565549;06/10/2025
petz;Petz Sete Lagoas;Avenida Raquel Teixeira Viana;Canaã;Sete Lagoas;MG;35700-293;-19.4668329;-44.2544129;06/10/2025
petz;Petz Shopping CenterVale;Avenida Deputado Benedito Matarazzo 9403;Jardim Paulista;São José dos Campos;SP;12215-900;-23.223701;-45.9009074;06/10/2025
petz;Petz Shopping Golden Square;Avenida Kennedy;Jardim do Mar;São Bernardo do Campo;SP;09726-252;-23.7028200023;-46.5553680712;06/10/2025
petz;Petz Shopping Grande Rio;R. Maria Soares Sendas, 111;Parque Barreto;São João de Meriti;RJ;invalido;;;06/10/2025
petz;Petz Shopping Grand Plaza;Avenida Industrial;Campestre;Santo André;SP;09080-510;-23.664;-46.5459592592;06/10/2025
petz;Petz Shopping Itaguaçu;Rua Gerôncio Thives;Barreiros;São José;SC;88117-292;-27.5843617;-48.6120995;06/10/2025
petz;Petz Shopping Jockey Plaza;Rua Konrad Adenauer;Tarumã;Curitiba;PR;82821-020;-25.428;-49.2010498647;06/10/2025
petz;Petz Shopping Mauá;Avenida Governador Mário Covas Júnior;Centro;Mauá;SP;09390-040;-23.6667372;-46.4598263;06/10/2025
petz;Petz Shopping Pantanal;Avenida G;Jardim Aclimação;Cuiabá;MT;78050-250;-15.5880554;-56.0760854;06/10/2025
petz;Petz Shopping Sul Valparaíso;Quadra 1;Parque Esplanada III;Valparaíso de Goiás;GO;72876-902;-16.0775373;-47.9787391;06/10/2025
petz;Petz Silva Jardim;Rodovia BR-116;Tarumã;Curitiba;PR;82590-300;-25.3525799923;-49.273;06/10/2025
petz;Petz Silviano Brandão;Avenida Silviano Brandão;Horto;Belo Horizonte;MG;31015-015;-19.909275;-43.9180412;06/10/2025
petz;Petz Sorocaba;Praça Dom Tadeu Strunck;Centro;Sorocaba;SP;18035-095;-23.5076903;-47.4523587;06/10/2025
petz;Petz Sorocaba Tauste;Avenida General Carneiro;Vila Lucy;Sorocaba;SP;18043-003;-23.5043243;-47.4750024;06/10/2025
petz;Petz Sumaré;Avenida da Amizade;Parque Jatobá (Nova Veneza);Sumaré;SP;13175-646;-22.8166383;-47.2446664;06/10/2025
petz;Petz Suzano;Rua Sete de Setembro 555;Parque Suzano;Suzano;SP;08673-900;-23.543;-46.3056987194;06/10/2025
petz;Petz Taboão da Serra;Rua do Tesouro;Parque Santos Dumont;Taboão da Serra;SP;06754-190;-23.602;-46.7539821659;06/10/2025
petz;Petz Taguatinga;Quadra QS 1 Rua 212;Areal (Águas Claras);Brasília;DF;71950-550;-15.8532553;-48.0344484;06/10/2025
petz;Petz Tamboré;Alameda Araguaia;Alphaville Industrial;Barueri;SP;06455-000;-23.5220700085;-46.876;06/10/2025
petz;Petz Tatuí;Rua São Bento;Centro;Tatuí;SP;18270-820;-23.3506728;-47.8424272;06/10/2025
petz;Petz Tauste Campinas;Avenida dos Imbés;Alphaville Dom Pedro;Campinas;SP;13097-172;-22.9099384;-47.0626332;06/10/2025
petz;Petz Teodoro Sampaio;Rua Teodoro Sampaio;Pinheiros;São Paulo;SP;05406-100;-23.9500300465;-46.636;06/10/2025
petz;Petz Teotônio Vilela;Avenida Senador Teotônio Vilela;Jardim São Rafael;São Paulo;SP;04864-001;-23.8930600401;-46.2595951048;06/10/2025
petz;Petz Teresina;Avenida João XXIII;Jóquei;Teresina;PI;64049-010;-5.0781871;-42.74991;06/10/2025
petz;Petz Torquato Tapajós;Av. Torquato Tapajós, 313;Flores;Manaus;AM;invalido;;;06/10/2025
petz;Petz Torres;Avenida Comendador Franco;Guabirotuba;Curitiba;PR;81520-000;-25.4654400084;-49.273;06/10/2025
petz;Petz Trimais;Avenida Tucuruvi;Tucuruvi;São Paulo;SP;02305-002;-23.4916599931;-46.574542132;06/10/2025
petz;Petz Uberaba;Avenida Leopoldino de Oliveira;Centro;Uberaba;MG;38010-000;-19.7496894;-47.9341255;06/10/2025
petz;Petz Uberlândia;Avenida Rondon Pacheco;Tabajaras;Uberlândia;MG;38400-242;-18.9176448;-48.2657238;06/10/2025
petz;Petz Várzea Grande;Avenida Miguel Sutil;Cidade Alta;Cuiabá;MT;78030-485;-15.6067708;-56.1216663;06/10/2025
petz;Petz Vicente Rao;Avenida Professor Vicente Ráo;Jardim Petrópolis;São Paulo;SP;04636-001;-23.2459599691;-46.3065230019;06/10/2025
petz;Petz Vila Galvão;Rua Maria Primo de Jesus;Vila Galvão;Guarulhos;SP;07056-040;-23.4538199917;-46.533;06/10/2025
petz;Petz Vila Isabel;Rua Teodoro da Silva;Vila Isabel;Rio de Janeiro;RJ;20560-025;-22.9185673;-43.2507474;06/10/2025
petz;Petz Vila Mariana;Rua Vergueiro;Vila Mariana;São Paulo;SP;04102-000;-23.5802582809;-46.6392371252;06/10/2025
petz;Petz Vila Matilde;Avenida Conde de Frontin;Tatuapé;São Paulo;SP;03501-000;-23.3777199799;-46.8217480603;06/10/2025
petz;Petz Vila Velha;Travessa Santa Leopoldina;Coqueiral de Itaparica;Vila Velha;ES;29102-320;-20.3545362;-40.2945134;06/10/2025
petz;Petz Vitória;Avenida Nossa Senhora da Penha;Santa Lúcia;Vitória;ES;29056-075;-20.2982193;-40.2999592;06/10/2025
petz;Petz Vitória da Conquista;Avenida Olívia Flores;Candeias;Vitória da Conquista;BA;45028-610;-14.8605196;-40.8267051;06/10/2025
petz;Petz Washington Luís;Avenida Washington Luís;Santo Amaro;São Paulo;SP;04662-003;-23.8537300363;-46.9695021994;06/10/2025
petz;Petz Washington Soares;Avenida Washington Soares;Engenheiro Luciano Cavalcante;Fortaleza;CE;60810-350;-3.7749868;-38.4876205;06/10/2025
cobasi;Cobasi Getúlio Vargas - Osasco;Avenida Getúlio Vargas;;Osasco;SP;indisponivel;;;06/10/2025
cobasi;Cobasi Jandira Mall;Rua Manoel Alves Garcia;;Jandira;SP;indisponivel;;;06/10/2025
cobasi;Cobasi João Pessoa;Rua Bacharel José de Oliveira Curchatuz;;João Pessoa;PB;indisponivel;;;06/10/2025
cobasi;Cobasi Marília Esmeralda;Avenida das Esmeraldas;;Marília;SP;indisponivel;;;06/10/2025
cobasi;Cobasi Presidente Prudente;Avenida Onze de Maio;;Presidente Prudente;SP;indisponivel;;;06/10/2025
cobasi;Cobasi Riviera de São Lourenço;Rua Aprovada 239;;Bertioga;SP;indisponivel;;;06/10/2025
cobasi;Pet Shop Cobasi Alphaville;Alameda Rio Negro;Alphaville Centro Industrial e Empresarial/Alphaville.;Barueri;SP;06454-000;-23.5001099961;-46.8878758994;06/10/2025
cobasi;Pet Shop Cobasi Alto da Boa Vista;Avenida Santo Amaro;Santo Amaro;São Paulo;SP;04702-002;-23.8577800354;-46.636;06/10/2025
cobasi;Pet Shop Cobasi Alto de Pinheiros;Avenida General Furtado Nascimento;Alto de Pinheiros;São Paulo;SP;05465-070;-23.1392199516;-47.0819131554;06/10/2025
cobasi;Pet Shop Cobasi Americana;Avenida Brasil;Jardim São Paulo;Americana;SP;13468-000;-22.7378463;-47.3335688;06/10/2025
cobasi;Pet Shop Cobasi Andradas;Avenida dos Andradas;Pompéia;Belo Horizonte;MG;30280-020;-19.9161426;-43.9092584;06/10/2025
cobasi;Pet Shop Cobasi Aracaju Rio Mar;Avenida Delmiro Gouveia;Coroa do Meio;Aracaju;SE;49035-500;-10.9594312;-37.0419023;06/10/2025
cobasi;Pet Shop Cobasi Araraquara;Avenida Alberto Benassi;Jardim Bandeirantes;Araraquara;SP;14804-300;-21.7864532;-48.2205797;06/10/2025
cobasi;Pet Shop Cobasi Araraquara Savegnago;Rua Maurício Gali;;Araraquara;SP;indisponivel;;;06/10/2025
cobasi;Pet Shop Cobasi Araçatuba;Rua Luiz Pereira Barreto;Vila São Paulo;Araçatuba;SP;16015-445;-21.2028539;-50.4536793;06/10/2025
cobasi;Pet Shop Cobasi Assai Anhanguera;Rua Samuel Klabin 193;Bela Aliança;São Paulo;SP;05077-903;-23.4443199877;-46.636;06/10/2025
cobasi;Pet Shop Cobasi Assaí Interlagos;Avenida Sargento Geraldo Sant'Ana;Jardim Taquaral;São Paulo;SP;04674-225;-23.2408299685;-46.9710730021;06/10/2025
cobasi;Pet Shop Cobasi Assaí Marginal Tietê;Avenida Condessa Elisabeth de Robiano;Jardim América da Penha;São Paulo;SP;03704-000;-23.742400024;-46.8480590975;06/10/2025
cobasi;Pet Shop Cobasi Atibaia;Rua José Alvim;Centro;Atibaia;SP;12940-750;-23.1164904;-46.5522265;06/10/2025
cobasi;Pet Shop Cobasi Atibaia II;Avenida Brigadeiro José Vicente Faria Lima;Centro;Atibaia;SP;12940-284;-23.1175492;-46.5567066;06/10/2025
cobasi;Pet Shop Cobasi Atlântica;Avenida Atlântica;Interlagos;São Paulo;SP;04772-005;-23.548;-46.2891459381;06/10/2025
cobasi;Pet Shop Cobasi Augusta;Rua Augusta;Cerqueira César;São Paulo;SP;01412-000;-23.5330599959;-46.636;06/10/2025
cobasi;Pet Shop Cobasi Av. Jundiaí;Avenida Jundiaí;Anhangabaú;Jundiaí;SP;13208-051;-23.1909011;-46.8999397;06/10/2025
cobasi;Pet Shop Cobasi Av. Morumbi;Avenida Morumbi;Morumbi;São Paulo;SP;05606-200;-23.9710900446;-47.0975230552;06/10/2025
cobasi;Pet Shop Cobasi Avenida São Miguel;Avenida São Miguel;Vila Norma;São Paulo;SP;08070-002;-24.0221200517;-46.1188114309;06/10/2025
cobasi;Pet Shop Cobasi BH Belvedere;Rua Maria Luiza Santiago;Santa Lúcia;Belo Horizonte;MG;30360-740;-19.9734626;-43.9480794;06/10/2025
cobasi;Pet Shop Cobasi BH Castelo;Avenida Heráclito Mourão de Miranda;Alípio de Melo;Belo Horizonte;MG;30840-032;-19.89405;-44.0041007;06/10/2025
cobasi;Pet Shop Cobasi BH Contorno;Avenida do Contorno;Santa Efigênia;Belo Horizonte;MG;30110-017;-19.9139617;-43.9323353;06/10/2025
cobasi;Pet Shop Cobasi BH Del Rey;Avenida Presidente Carlos Luz;Caiçaras;Belo Horizonte;MG;31250-010;-19.9012987;-43.9667394;06/10/2025
cobasi;Pet Shop Cobasi Barra Carrefour;Avenida das Américas;Barra da Tijuca;Rio de Janeiro;RJ;22640-102;-22.9999428;-43.341407;06/10/2025
cobasi;Pet Shop Cobasi Barra Guanabara;Avenida das Américas;Barra da Tijuca;Rio de Janeiro;RJ;22631-003;-23.0008235;-43.3456628;06/10/2025
cobasi;Pet Shop Cobasi Barra Sul;Avenida Diário de Notícias;Cristal;Porto Alegre;RS;90810-080;-30.0504600069;-51.2098322109;06/10/2025
cobasi;Pet Shop Cobasi Barreiros;Avenida Leoberto Leal;Barreiros;São José;SC;88117-001;-27.615;-48.6149989394;06/10/2025
cobasi;Pet Shop Cobasi Barretos;Avenida Engenheiro Necker Carvalho de Camargos;América;Barretos;SP;14783-085;-20.5696797;-48.5757464;06/10/2025
cobasi;Pet Shop Cobasi Bauru;Rua São Gonçalo;Vila Altinópolis;Bauru;SP;17012-170;-22.314459;-49.0586951;06/10/2025
cobasi;Pet Shop Cobasi Belém Bosque Grão Pará;Passagem Cruzeiro;Mangueirão;Belém;PA;66640-840;-1.3794267;-48.453117;06/10/2025
cobasi;Pet Shop Cobasi Birigui;Avenida Euclides Miragaia;Jardim Jussara Maria;Birigüi;SP;16204-000;-21.3031528;-50.3585193;06/10/2025
cobasi;Pet Shop Cobasi Blumenau Neumarkt;Rua Sete de Setembro;Centro;Blumenau;SC;89010-201;-26.919360001;-49.0655962518;06/10/2025
cobasi;Pet Shop Cobasi Blumenau Norte Shopping;Rodovia BR-470;Salto do Norte;Blumenau;SC;89065-800;-26.8885799887;-49.0318833641;06/10/2025
cobasi;Pet Shop Cobasi Botafogo;Rua Voluntários da Pátria;;Rio de Janeiro;RJ;indisponivel;;;06/10/2025
cobasi;Pet Shop Cobasi Botucatu Mall;Avenida Professor José Pedretti Neto;Conjunto Residencial Frei Fidelis;Botucatu;SP;18606-125;-22.898978;-48.4484111;06/10/2025
cobasi;Pet Shop Cobasi Bragança Paulista;Rua Alpheu Grimello;Taboão;Bragança Paulista;SP;12916-010;-22.9743115;-46.5353135;06/10/2025
cobasi;Pet Shop Cobasi Bragança Paulista - Av. dos Imigrantes;Avenida dos Imigrantes;;Bragança Paulista;SP;invalido;;;06/10/2025
cobasi;Pet Shop Cobasi Brasilia Venancio;SCS Quadra 8 Bloco B Lotes 50/60;Asa Sul;Brasília;DF;70333-900;-15.820697;-47.917206;06/10/2025
cobasi;Pet Shop Cobasi Brasília Asa Norte;Quadra SEPN 516 Bloco E;Asa Norte;Brasília;DF;70770-525;-15.7766266;-47.8751937;06/10/2025
cobasi;Pet Shop Cobasi Brasília CasaPark;SGCV Lote 09;Zona Industrial (Guará);Brasília;DF;71215-900;-15.8102388;-47.9713115;06/10/2025
cobasi;Pet Shop Cobasi Brasília Pistão Sul;Quadra Setor D Sul;Taguatinga Sul (Taguatinga);Brasília;DF;72020-111;-15.8107481;-48.065751;06/10/2025
cobasi;Pet Shop Cobasi Brasília Sia;Trecho SIA Trecho 2;Zona Industrial (Guará);Brasília;DF;71200-020;-15.7872388;-47.9403153;06/10/2025
cobasi;Pet Shop Cobasi Brasília Taquari;Avenida Comercial;Setor Habitacional Taquari (Lago Norte);Brasília;DF;71551-010;-15.6956128426;-47.8729882757;06/10/2025
cobasi;Pet Shop Cobasi Braz Leme;Avenida Braz Leme;Casa Verde;São Paulo;SP;02511-000;-23.5062973;-46.6438294;06/10/2025
cobasi;Pet Shop Cobasi Brooklin;Avenida Washington Luís;Santo Amaro;São Paulo;SP;04627-003;-23.2466799676;-46.636;06/10/2025
cobasi;Pet Shop Cobasi Buritis;Avenida Professor Mário Werneck;Buritis;Belo Horizonte;MG;30575-180;-19.975593;-43.9682604;06/10/2025
cobasi;Pet Shop Cobasi Butantã;Avenida Professor Francisco Morato;Butantã;São Paulo;SP;05513-300;-23.1370599508;-46.636;06/10/2025
cobasi;Pet Shop Cobasi Cachoeirinha;Avenida Parada Pinto;Vila Nova Cachoeirinha;São Paulo;SP;02611-002;-23.4599799904;-46.5399843544;06/10/2025
cobasi;Pet Shop Cobasi Caminho do Mar;Avenida Caminho do Mar;Rudge Ramos;São Bernardo do Campo;SP;09609-000;-23.694540002;-46.565;06/10/2025
cobasi;Pet Shop Cobasi Campinas Abolição;Rua da Abolição;Ponte Preta;Campinas;SP;13041-445;-22.9184528;-47.0546529;06/10/2025
cobasi;Pet Shop Cobasi Campinas Amoreiras;Avenida Ruy Rodriguez;Jardim Novo Campos Elíseos;Campinas;SP;13060-192;-22.9099384;-47.0626332;06/10/2025
cobasi;Pet Shop Cobasi Campinas Cambuí;Avenida Orosimbo Maia;Cambuí;Campinas;SP;13024-045;-22.8921264;-47.0546529;06/10/2025
cobasi;Pet Shop Cobasi Campinas Cambuí II;Rua Coronel Francisco Andrade Coutinho;Cambuí;Campinas;SP;13025-190;-22.9048812;-47.0482191;06/10/2025
cobasi;Pet Shop Cobasi Campinas Princesa d’ Oeste;Avenida Princesa D'Oeste;Jardim Paraíso;Campinas;SP;13100-040;-22.9122981;-47.0450109;06/10/2025
cobasi;Pet Shop Cobasi Campinas Shopping Galleria;Avenida Doutor José Bonifácio Coutinho Nogueira 225;Jardim Madalena;Campinas;SP;13091-910;-22.9099384;-47.0626332;06/10/2025
cobasi;Pet Shop Cobasi Campinas Taquaral;Avenida Doutor Theodureto de Almeida Camargo;Jardim Nossa Senhora Auxiliadora;Campinas;SP;13075-630;-22.8741326;-47.0694663;06/10/2025
cobasi;Pet Shop Cobasi Campo Grande MS;Avenida Afonso Pena;Jardim dos Estados;Campo Grande;MS;79020-000;-20.4697105;-54.6201211;06/10/2025
cobasi;Pet Shop Cobasi Campo Limpo;Rua Doutor Joviano Pacheco de Aguirre;Jardim Bom Refúgio;São Paulo;SP;05788-290;-23.9897200453;-47.1178453836;06/10/2025
cobasi;Pet Shop Cobasi Candangolandia;Setor de Postos e Motéis Sul I;Candangolândia;Brasília;DF;71727-800;-15.8495671;-47.9490349;06/10/2025
cobasi;Pet Shop Cobasi Canoas;Avenida Farroupilha;Marechal Rondon;Canoas;RS;92020-475;-29.9181800028;-51.184;06/10/2025
cobasi;Pet Shop Cobasi Canoas BR116;Avenida Getulio Vargas;;Canoas;RS;invalido;;;06/10/2025
cobasi;Pet Shop Cobasi Cantareira Norte Shopping;Avenida Raimundo Pereira de Magalhães;Jardim Pirituba;São Paulo;SP;02984-035;-23.4295599827;-46.636;06/10/2025
cobasi;Pet Shop Cobasi Carapicuíba;Avenida Desembargador Doutor Eduardo Cunha de Abreu;Vila Municipal;Carapicuíba;SP;06328-330;-23.523;-46.8306995218;06/10/2025
cobasi;Pet Shop Cobasi Carrefour Nações;Avenida das Nações Unidas;Vila Gertrudes;São Paulo;SP;04794-000;-23.8691200376;-46.636;06/10/2025
cobasi;Pet Shop Cobasi Carrão;Rua Serra de Botucatu;Vila Gomes Cardim;São Paulo;SP;03317-001;-23.3963499821;-46.636;06/10/2025
cobasi;Pet Shop Cobasi Casa Forte;R. Leonardo Bezerra Cavalcanti;;Recife;PE;invalido;;;06/10/2025
cobasi;Pet Shop Cobasi Cascavel;Avenida Brasil;Região do Lago;Cascavel;PR;85812-500;-24.9518599954;-53.4504336442;06/10/2025
cobasi;Pet Shop Cobasi Caxias do Sul;Avenida Therezinha Pauletti Sanvitto;Sanvitto;Caxias do Sul;RS;95110-195;-29.1959000071;-51.179;06/10/2025
cobasi;Pet Shop Cobasi Cerro Corá;Rua Cerro Corá;Vila Romana;São Paulo;SP;05061-400;-23.1800799567;-46.2346585252;06/10/2025
cobasi;Pet Shop Cobasi Comendador Agostinho - Limeira II;Avenida Comendador Agostinho Prada;Jardim Maria Bruschi Modeneis;Limeira;SP;13482-220;-22.5665354;-47.3974368;06/10/2025
cobasi;Pet Shop Cobasi Conselheiro Rodrigues Alves;Rua Vergueiro;Vila Mariana;São Paulo;SP;04102-000;-23.5802582809;-46.6392371252;06/10/2025
cobasi;Pet Shop Cobasi Continente Shopping;Rodovia BR-101;Distrito Industrial;São José;SC;88104-800;-27.6184200037;-48.624140309;06/10/2025
cobasi;Pet Shop Cobasi Copacabana Posto 2;Avenida Nossa Senhora de Copacabana;Copacabana;Rio de Janeiro;RJ;22020-002;-22.9638439;-43.1736318;06/10/2025
cobasi;Pet Shop Cobasi Corifeu;Avenida Corifeu de Azevedo Marques;Butantã;São Paulo;SP;05582-000;-23.9683900444;-46.1774222099;06/10/2025
cobasi;Pet Shop Cobasi Cotia;Rua Luiz Silva;Parque Rincão;Cotia;SP;06716-030;-23.5922099921;-46.9061335148;06/10/2025
cobasi;Pet Shop Cobasi Criciúma;Avenida Jorge Elias de Lucca;Nossa Senhora da Salete;Criciúma;SC;88813-390;-28.6668399983;-49.37;06/10/2025
cobasi;Pet Shop Cobasi Cuiabá CPA;Avenida Historiador Rubens de Mendonça;Bosque da Saúde;Cuiabá;MT;78050-000;-15.5883253;-56.0836532;06/10/2025
cobasi;Pet Shop Cobasi Curitiba Linha Verde;Avenida Senador Salgado Filho;Prado Velho;Curitiba;PR;80215-270;-25.4244899937;-49.2691134903;06/10/2025
cobasi;Pet Shop Cobasi Curitiba Mario Tourinho;Rua General Mario Tourinho;;Curitiba;PR;invalido;;;06/10/2025
cobasi;Pet Shop Cobasi Curitiba Novo Mundo;Rua Isaac Guelmann;Novo Mundo;Curitiba;PR;81050-030;-25.410719998;-49.2921335542;06/10/2025
cobasi;Pet Shop Cobasi DF Gama;Quadra Quadra 55;Setor Central (Gama);Brasília;DF;72405-550;-16.019879;-48.0670828;06/10/2025
cobasi;Pet Shop Cobasi DF Planaltina;Área AEN 19;Setor Norte (Planaltina);Brasília;DF;73340-190;-15.6060191;-47.6603747;06/10/2025
cobasi;Pet Shop Cobasi DF Plaza Shopping;Rua Copaíba;Norte (Águas Claras);Brasília;DF;71919-540;-15.8336667;-48.039146;06/10/2025
cobasi;Pet Shop Cobasi Diadema;Avenida Presidente Kennedy;Centro;Diadema;SP;09913-000;-23.6877100081;-46.623;06/10/2025
cobasi;Pet Shop Cobasi Eco Mall Pinheirinho;Rodovia BR-116;Xaxim;Curitiba;PR;81690-300;-25.3830899924;-49.2232726872;06/10/2025
cobasi;Pet Shop Cobasi Embu das Artes;Rua Alexandre Kadunc;Tingidor;Embu das Artes;SP;06803-045;-23.652609;-46.8487976;06/10/2025
cobasi;Pet Shop Cobasi Embu das Artes II;Rua São Luiz;Centro;Embu das Artes;SP;06840-050;-23.649;-46.8418801256;06/10/2025
cobasi;Pet Shop Cobasi Engenheiro Caetano Alvares;Av. Eng. Caetano Álvares;;São Paulo;SP;indisponivel;;;06/10/2025
cobasi;Pet Shop Cobasi Epitácio Pessoa;Avenida Presidente Epitácio Pessoa;Tambauzinho;João Pessoa;PB;58042-006;-7.1236539;-34.8472401;06/10/2025
cobasi;Pet Shop Cobasi Ermano Marchetti;Rua Luiz Gatti;Água Branca;São Paulo;SP;05038-150;-23.9136700368;-46.2371129198;06/10/2025
cobasi;Pet Shop Cobasi Estr. do Campo Limpo;Estrada do Campo Limpo;Pirajussara;São Paulo;SP;05787-000;-23.1063699481;-46.1542527848;06/10/2025
cobasi;Pet Shop Cobasi Estrada de Itapecerica;Estrada de Itapecerica;Vila Maracanã;São Paulo;SP;05835-005;-23.1004299469;-46.1477732007;06/10/2025
cobasi;Pet Shop Cobasi Feira de Santana;Avenida Governador João Durval Carneiro;Tomba;Feira de Santana;BA;44090-008;-12.2958364;-38.9485423;06/10/2025
cobasi;Pet Shop Cobasi Florianópolis;Rodovia José Carlos Daux;Saco Grande;Florianópolis;SC;88032-005;-27.597;-48.5435160762;06/10/2025
cobasi;Pet Shop Cobasi Florianópolis Centro;Rua Francisco Tolentino;Centro;Florianópolis;SC;88010-200;-27.5967299983;-48.5493046639;06/10/2025
cobasi;Pet Shop Cobasi Fortaleza Aldeota;Avenida Santos Dumont;Aldeota;Fortaleza;CE;60150-162;-3.7357094;-38.5069693;06/10/2025
cobasi;Pet Shop Cobasi Fortaleza Meireles;Avenida Barão de Studart;Aldeota;Fortaleza;CE;60120-024;-3.7357094;-38.5069693;06/10/2025
cobasi;Pet Shop Cobasi Fortaleza Open Mall;Avenida Washington Soares;Engenheiro Luciano Cavalcante;Fortaleza;CE;60810-350;-3.7749868;-38.4876205;06/10/2025
cobasi;Pet Shop Cobasi Franca;Avenida Doutor Antônio Barboza Filho;Jardim Francano;Franca;SP;14405-000;-20.5428416;-47.4081341;06/10/2025
cobasi;Pet Shop Cobasi Frei Gaspar;Avenida Brigadeiro Faria Lima;Centro;São Bernardo do Campo;SP;09720-010;-23.7005700093;-46.5721748124;06/10/2025
cobasi;Pet Shop Cobasi Goiânia Decathlon;Avenida I;Jardim Goiás;Goiânia;GO;74810-075;-16.6486358;-49.1885389;06/10/2025
cobasi;Pet Shop Cobasi Goiânia T63;Avenida T 63;Anhanguera;Goiânia;GO;74335-104;-16.7202577;-49.3009077;06/10/2025
cobasi;Pet Shop Cobasi Granja Vianna;Avenida Marginal;Parque São George;Cotia;SP;06708-030;-23.604;-46.911830128;06/10/2025
cobasi;Pet Shop Cobasi Guarujá;Avenida Leomil;Pitangueiras;Guarujá;SP;11410-160;-23.9948444;-46.2568678;06/10/2025
cobasi;Pet Shop Cobasi Guarulhos;Avenida Aniello Pratici;Jardim Santa Francisca;Guarulhos;SP;07013-000;-23.4634500008;-46.533;06/10/2025
cobasi;Pet Shop Cobasi Guarulhos Centro;Rua Egisto Thomaz;Jardim Maia;Guarulhos;SP;07115-180;-23.440589996;-46.5085700651;06/10/2025
cobasi;Pet Shop Cobasi Guarulhos Sakamoto;Rodovia Presidente Dutra KM 210;;Guarulhos;SP;indisponivel;;;06/10/2025
cobasi;Pet Shop Cobasi Guarulhos Timóteo Penteado;Avenida Doutor Timóteo Penteado;Vila Hulda;Guarulhos;SP;07094-000;-23.4817200081;-46.5125926597;06/10/2025
cobasi;Pet Shop Cobasi Higienópolis;Avenida Angélica;Santa Cecília;São Paulo;SP;01228-000;-23.5403499917;-46.6443449262;06/10/2025
cobasi;Pet Shop Cobasi Iguatemi Campinas;Avenida Iguatemi;Vila Brandina;Campinas;SP;13092-500;-22.8936642;-47.0278715;06/10/2025
cobasi;Pet Shop Cobasi Iguatemi Fortaleza;Rua Albert Sabin;Guararapes;Fortaleza;CE;60810-060;-3.7318616;-38.5266704;06/10/2025
cobasi;Pet Shop Cobasi Imigrantes;Avenida Professor Abraão de Morais;Saúde;São Paulo;SP;04123-011;-23.548;-46.8962632735;06/10/2025
cobasi;Pet Shop Cobasi Imirim;Avenida Imirim;Imirim;São Paulo;SP;02465-300;-23.6262100157;-46.5506854769;06/10/2025
cobasi;Pet Shop Cobasi Indaiatuba;Avenida Presidente Vargas;Cidade Nova I;Indaiatuba;SP;13334-085;-23.0871466;-47.2045596;06/10/2025
cobasi;Pet Shop Cobasi Interlar Interlagos;Avenida Interlagos;Jardim Umuarama;São Paulo;SP;04661-100;-23.242269969;-46.636;06/10/2025
cobasi;Pet Shop Cobasi Itajaí;Avenida Osvaldo Reis;Praia Brava de Itajaí;Itajaí;SC;88306-600;-26.9060199954;-48.6642203974;06/10/2025
cobasi;Pet Shop Cobasi Itaquaquecetuba D'avó;Avenida Ítalo Adami;Vila Zeferina;Itaquaquecetuba;SP;08573-000;-23.486;-46.3504532325;06/10/2025
cobasi;Pet Shop Cobasi Itaquera;Avenida Itaquera;;São Paulo;SP;indisponivel;;;06/10/2025
cobasi;Pet Shop Cobasi Jabaquara;Avenida Engenheiro George Corbisier;Jabaquara;São Paulo;SP;04345-001;-23.6482179;-46.6457286;06/10/2025
cobasi;Pet Shop Cobasi Jaboatão Dos Guararapes;Avenida Bernardo Vieira de Melo;Piedade;Jaboatão dos Guararapes;PE;54410-010;-8.1775463;-34.9170705;06/10/2025
cobasi;Pet Shop Cobasi Jacareí Tenda;Praça Charles Gates;Jardim das Indústrias;Jacareí;SP;12306-090;-23.2987827;-45.9662542;06/10/2025
cobasi;Pet Shop Cobasi Jardim Japão;Avenida Jardim Japão;Jardim Brasil (Zona Norte);São Paulo;SP;02221-001;-23.5904800081;-46.636;06/10/2025
cobasi;Pet Shop Cobasi Jaú;Avenida Anna Claudina;Jardim Estádio;Jaú;SP;17203-381;-22.3019794;-48.5711073;06/10/2025
cobasi;Pet Shop Cobasi Jd. Botânico;CJ SMDB AREA ESPECIAL D;;Brasília;DF;indisponivel;;;06/10/2025
cobasi;Pet Shop Cobasi Joinville;Avenida Rolf Wiest;Bom Retiro;Joinville;SC;89223-005;-26.304;-48.8668822445;06/10/2025
cobasi;Pet Shop Cobasi Juiz de Fora Jardim Norte;Rua Bernardo Mascarenhas;Mariano Procópio;Juiz de Fora;MG;36080-000;-21.7466546;-43.3645759;06/10/2025
cobasi;Pet Shop Cobasi Jundiaí;Rua José Amato;Ponte de Campinas;Jundiaí;SP;13201-141;-23.1753283;-46.896855;06/10/2025
cobasi;Pet Shop Cobasi Lauro de Freitas;Avenida Santos Dumont;Pitangueiras;Lauro de Freitas;BA;42701-260;-12.8983086;-38.3315104;06/10/2025
cobasi;Pet Shop Cobasi Limeira;Avenida Carlos Kuntz Busch 800;Parque Egisto Ragazzo;Limeira;SP;13485-905;-22.5319933;-47.3865929;06/10/2025
cobasi;Pet Shop Cobasi Londrina Centro;Rua Minas Gerais;Centro;Londrina;PR;86010-170;-23.3102700011;-51.162706002;06/10/2025
cobasi;Pet Shop Cobasi Londrina Madre Leônia;Avenida Madre Leônia Milito;Bela Suiça;Londrina;PR;86050-270;-23.2897499895;-51.163;06/10/2025
cobasi;Pet Shop Cobasi M'Boi Mirim;Estrada do M'Boi Mirim;Jardim Regina;São Paulo;SP;04905-002;-23.1954699595;-46.636;06/10/2025
cobasi;Pet Shop Cobasi Maceió Fernandes Lima;Avenida Fernandes Lima;Farol;Maceió;AL;57055-000;-9.644236;-35.7353057;06/10/2025
cobasi;Pet Shop Cobasi Maracanaú;Rua João de Alencar;Centro;Maracanaú;CE;61900-150;-3.879072;-38.6235321;06/10/2025
cobasi;Pet Shop Cobasi Marechal Tito;Avenida Marechal Tito;São Miguel Paulista;São Paulo;SP;08022-000;-23.0829699511;-46.636;06/10/2025
cobasi;Pet Shop Cobasi Marginal Pinheiros;Avenida das Nações Unidas;Vila Almeida;São Paulo;SP;04795-100;-23.2268799659;-46.9862902068;06/10/2025
cobasi;Pet Shop Cobasi Marginal Tietê;Rua Maria Prestes Maia;Vila Guilherme;São Paulo;SP;02047-000;-23.520549989;-46.6659435382;06/10/2025
cobasi;Pet Shop Cobasi Maringá;Avenida João Paulino Vieira Filho;Zona 01;Maringá;PR;87020-015;-23.4277900063;-51.9359593904;06/10/2025
cobasi;Pet Shop Cobasi Marília;Avenida Sampaio Vidal;Centro;Marília;SP;17500-022;-22.2175846;-49.9505291;06/10/2025
cobasi;Pet Shop Cobasi Minas Shopping;Avenida Cristiano Machado;;Belo Horizonte;MG;invalido;;;06/10/2025
cobasi;Pet Shop Cobasi Moema Pássaros;Avenida Ibirapuera;Indianópolis;São Paulo;SP;04028-002;-23.548;-46.3865360374;06/10/2025
cobasi;Pet Shop Cobasi Moinhos dos Ventos;Rua Miguel Tostes;Rio Branco;Porto Alegre;RS;90430-060;-30.033;-51.2181488219;06/10/2025
cobasi;Pet Shop Cobasi Mooca;Avenida Alcântara Machado;Brás;São Paulo;SP;03101-000;-23.419839982;-46.7758019259;06/10/2025
cobasi;Pet Shop Cobasi Morumbi;Avenida Giovanni Gronchi;Vila Andrade;São Paulo;SP;05724-003;-23.1148299492;-46.1634812825;06/10/2025
cobasi;Pet Shop Cobasi Natal;Avenida Senador Salgado Filho;Lagoa Nova;Natal;RN;59076-000;-5.8259362;-35.2099611;06/10/2025
cobasi;Pet Shop Cobasi Niterói;Rua Marechal Deodoro;Centro;Niterói;RJ;24030-060;-22.8895663;-43.1191126;06/10/2025
cobasi;Pet Shop Cobasi Nossa Senhora do Carmo;Beco São Paulo;Santa Rita de Cássia;Belo Horizonte;MG;30335-300;-19.9529456;-43.94026;06/10/2025
cobasi;Pet Shop Cobasi Nova Cantareira;Avenida Nova Cantareira;;São Paulo;SP;indisponivel;;;06/10/2025
cobasi;Pet Shop Cobasi Novo Hamburgo;Avenida Primeiro de Março;Pátria Nova;Novo Hamburgo;RS;93320-102;-29.6968555;-51.1312489;06/10/2025
cobasi;Pet Shop Cobasi Osasco;Avenida dos Autonomistas;Centro;Osasco;SP;06090-010;-23.5234599921;-46.8024054244;06/10/2025
cobasi;Pet Shop Cobasi Osasco João Andrade;Avenida João de Andrade;Santo Antônio;Osasco;SP;06132-006;-23.533;-46.7777661708;06/10/2025
cobasi;Pet Shop Cobasi POA Assis Brasil;Avenida Assis Brasil;Jardim Lindóia;Porto Alegre;RS;91010-003;-30.0569400052;-51.2576527369;06/10/2025
cobasi;Pet Shop Cobasi POA Av. Brasil;Avenida Brasil;Navegantes;Porto Alegre;RS;90230-061;-30.0267899985;-51.2371730785;06/10/2025
cobasi;Pet Shop Cobasi POA Bollogna Mall;Avenida Coronel Marcos;Pedra Redonda;Porto Alegre;RS;91760-000;-29.9690099925;-51.1560861131;06/10/2025
cobasi;Pet Shop Cobasi POA Central Parque;Avenida Ipiranga;Jardim Botânico;Porto Alegre;RS;91530-000;-30.0851100109;-51.2901914831;06/10/2025
cobasi;Pet Shop Cobasi Palmas;Quadra 105 Norte Alameda das Aroeiras;Plano Diretor Norte;Palmas;TO;77001-048;-10.1778543316;-48.3453318282;06/10/2025
cobasi;Pet Shop Cobasi Park Shopping Jacarepaguá;Rua Francisco Dantas;Freguesia (Jacarepaguá);Rio de Janeiro;RJ;22753-045;-22.9465657;-43.3406704;06/10/2025
cobasi;Pet Shop Cobasi Parque Olímpico;Avenida Embaixador Abelardo Bueno;Barra da Tijuca;Rio de Janeiro;RJ;22775-040;-22.9727518094;-43.3884886319;06/10/2025
cobasi;Pet Shop Cobasi Passo Fundo Shopping;Avenida Presidente Vargas;São Cristóvão;Passo Fundo;RS;99064-000;-28.2512099968;-52.3936141843;06/10/2025
cobasi;Pet Shop Cobasi Paulínia;Avenida José Paulino;Morumbi;Paulínia;SP;13140-723;-22.7585615;-47.1596551;06/10/2025
cobasi;Pet Shop Cobasi Pelotas;Avenida Ferreira Viana;Areal;Pelotas;RS;96085-000;-31.772;-52.3312491227;06/10/2025
cobasi;Pet Shop Cobasi Pinhais;Rua Primeiro de Maio;Centro;Pinhais;PR;83323-020;-25.4431999951;-49.194993365;06/10/2025
cobasi;Pet Shop Cobasi Piracicaba;Avenida Limeira;Areião;Piracicaba;SP;13414-018;-22.7033977;-47.6516183;06/10/2025
cobasi;Pet Shop Cobasi Piracicaba Independência;Avenida Independência;Cidade Alta;Piracicaba;SP;13419-160;-22.7347253;-47.6497317;06/10/2025
cobasi;Pet Shop Cobasi Poa Wenceslau Escobar;Avenida Wenceslau Escobar;Cristal;Porto Alegre;RS;91900-000;-29.9598299876;-51.23;06/10/2025
cobasi;Pet Shop Cobasi Pompéia;Rua Carlos Vicari;Água Branca;São Paulo;SP;05033-070;-23.548;-47.0341998539;06/10/2025
cobasi;Pet Shop Cobasi Ponta Grossa;Avenida Ernesto Vilela;Nova Rússia;Ponta Grossa;PR;84070-000;-25.1167800028;-50.1379497979;06/10/2025
cobasi;Pet Shop Cobasi Ponta Grossa II;Rua Ermelino de Leão;Olarias;Ponta Grossa;PR;84035-000;-25.0850099959;-50.1730312942;06/10/2025
cobasi;Pet Shop Cobasi Portal do Morumbi;Avenida Doutor Guilherme Dumont Vilares 1210/1230;Jardim Londrina;São Paulo;SP;05640-902;-23.548;-46.763235456;06/10/2025
cobasi;Pet Shop Cobasi Porto Alegre Iguatemi;Rua Antônio Carlos Berta;Jardim Europa;Porto Alegre;RS;91340-020;-30.033;-51.279379889;06/10/2025
cobasi;Pet Shop Cobasi Porto Alegre Ipiranga;Avenida Ipiranga;Partenon;Porto Alegre;RS;90610-001;-30.0191399903;-51.246009487;06/10/2025
cobasi;Pet Shop Cobasi Praia Grande;Avenida Ayrton Senna da Silva;Sítio do Campo;Praia Grande;SP;11726-000;-23.99403;-46.4061432;06/10/2025
cobasi;Pet Shop Cobasi Praia Grande Ocian;Avenida Presidente Kennedy;Ocian;Praia Grande;SP;11704-105;-24.025682;-46.479251;06/10/2025
cobasi;Pet Shop Cobasi Praça da Árvore;Avenida Jabaquara;Mirandópolis;São Paulo;SP;04046-000;-23.317419971;-46.636;06/10/2025
cobasi;Pet Shop Cobasi RJ Norte Shopping;Avenida Dom Hélder Câmara 5474;Cachambi;Rio de Janeiro;RJ;20771-900;-22.8814021;-43.2934758;06/10/2025
cobasi;Pet Shop Cobasi Raposo Tavares;Rodovia Raposo Tavares;Conjunto Residencial Butantã;São Paulo;SP;05576-000;-23.548;-46.1779130886;06/10/2025
cobasi;Pet Shop Cobasi Rebouças;Avenida Rebouças;Pinheiros;São Paulo;SP;05402-300;-23.146329956;-46.1978427136;06/10/2025
cobasi;Pet Shop Cobasi Recife;Rua Padre Carapuceiro;;Recife;PE;invalido;;;06/10/2025
cobasi;Pet Shop Cobasi Ribeirão Dom Pedro I;Avenida Dom Pedro I;Ipiranga;Ribeirão Preto;SP;14055-630;-21.1529926;-47.8231922;06/10/2025
cobasi;Pet Shop Cobasi Ribeirão Preto II (loja Maurilio Biagi);Avenida Maurílio Biagi;Santa Cruz do José Jacques;Ribeirão Preto;SP;14020-750;-21.1704008;-47.8103238;06/10/2025
cobasi;Pet Shop Cobasi Ribeirão Preto Iguatemi;Avenida Luiz Eduardo Toledo Prado;Vila do Golf;Ribeirão Preto;SP;14027-250;-21.1704008;-47.8103238;06/10/2025
cobasi;Pet Shop Cobasi Ribeirão Preto Presidente Vargas;Praça Presidente Vargas;Vila Abranches;Ribeirão Preto;SP;14093-129;-21.18607;-47.7557423;06/10/2025
cobasi;Pet Shop Cobasi Ricardo Jafet;Avenida Doutor Ricardo Jafet;Vila Firmiano Pinto;São Paulo;SP;04123-030;-23.3093199739;-46.636;06/10/2025
cobasi;Pet Shop Cobasi Rio das Pedras;Rua Jorge Ogushi;Jardim Vila Formosa;São Paulo;SP;03471-000;-23.548;-46.8201772583;06/10/2025
cobasi;Pet Shop Cobasi Rio de Janeiro Campo Grande;Estrada do Monteiro;Campo Grande;Rio de Janeiro;RJ;23045-830;-22.9035842;-43.5662438;06/10/2025
cobasi;Pet Shop Cobasi Rui Barbosa;Praça Rui Barbosa;Centro;Curitiba;PR;80010-030;-25.4280900038;-49.2729003419;06/10/2025
cobasi;Pet Shop Cobasi SBC Faria Lima;Avenida Brigadeiro Faria Lima;Centro;São Bernardo do Campo;SP;09720-000;-23.700570008;-46.565;06/10/2025
cobasi;Pet Shop Cobasi SP Ipiranga;Avenida Doutor Ricardo Jafet;Vila Firmiano Pinto;São Paulo;SP;04123-030;-23.3093199739;-46.636;06/10/2025
cobasi;Pet Shop Cobasi Sabará;Rua Moacir Simões da Rocha;Jardim Itapeva;São Paulo;SP;04674-150;-23.2409199627;-46.9709748329;06/10/2025
cobasi;Pet Shop Cobasi Salto;Avenida José Maria Marques de Oliveira;Vila Norma;Salto;SP;13327-300;-23.1825156;-47.312556;06/10/2025
cobasi;Pet Shop Cobasi Salvador Rio Vermelho;Avenida Juracy Magalhães Júnior;Rio Vermelho;Salvador;BA;41940-060;-13.0057625;-38.4847772;06/10/2025
cobasi;Pet Shop Cobasi Santa Bárbara d’Oeste Tivoli;Rua do Osmio;Jardim Mollon;Santa Bárbara D'Oeste;SP;13456-625;-22.7471;-47.3657;06/10/2025
cobasi;Pet Shop Cobasi Santana;Rua Voluntários da Pátria;Santana;São Paulo;SP;02402-200;-23.4767199851;-46.713755009;06/10/2025
cobasi;Pet Shop Cobasi Santo André Av. dos Estados;Avenida dos Estados;Parque Jaçatuba;Santo André;SP;09290-520;-23.6303399906;-46.538;06/10/2025
cobasi;Pet Shop Cobasi Santo André P. Barreto;Praça Engenheiro Roldão dos Santos Ferreira;Paraíso;Santo André;SP;09190-695;-23.6878500049;-46.5119604594;06/10/2025
cobasi;Pet Shop Cobasi Santo André Prestes Maia;Praça Uirapuru;Santa Maria;Santo André;SP;09071-220;-23.6573399912;-46.545271427;06/10/2025
cobasi;Pet Shop Cobasi Santos Afonso Pena;Avenida Affonso Penna;Aparecida;Santos;SP;11020-002;-23.9590362;-46.3200008;06/10/2025
cobasi;Pet Shop Cobasi Santos Conselheiro Nébias;Avenida Conselheiro Nébias;;Santos;SP;indisponivel;;;06/10/2025
cobasi;Pet Shop Cobasi Santos Francisco Glicério;Avenida General Francisco Glicério;Encruzilhada;Santos;SP;11065-400;-23.9673822;-46.3328146;06/10/2025
cobasi;Pet Shop Cobasi Sena Madureira;Rua Sena Madureira;Vila Clementino;São Paulo;SP;04021-001;-23.3200299688;-46.3873214347;06/10/2025
cobasi;Pet Shop Cobasi Shop. Estação Cuiabá;Avenida Miguel Sutil;Santa Rosa;Cuiabá;MT;78040-365;-15.5874562;-56.1225948;06/10/2025
cobasi;Pet Shop Cobasi Shopping Aricanduva;Avenida Aricanduva 5555;Jardim Santa Terezinha (Zona Leste);São Paulo;SP;03527-900;-23.5894000079;-46.6811607367;06/10/2025
cobasi;Pet Shop Cobasi Shopping Eldorado;Avenida Rebouças;Pinheiros;São Paulo;SP;05402-600;-23.9496700432;-46.636;06/10/2025
cobasi;Pet Shop Cobasi Sorocaba Av. São Paulo;Rua Antonio Fernandes;;Sorocaba;SP;indisponivel;;;06/10/2025
cobasi;Pet Shop Cobasi Sorocaba Itavuvu;Avenida Itavuvu;Jardim Maria Antônia Prado;Sorocaba;SP;18076-005;-23.4785453;-47.4746565;06/10/2025
cobasi;Pet Shop Cobasi Sorocaba Pannunzio;Avenida Doutor Armando Pannunzio;Jardim Vera Cruz;Sorocaba;SP;18050-000;-23.523089;-47.4910365;06/10/2025
cobasi;Pet Shop Cobasi Sorocaba Panorâmico;Avenida Comendador Pereira Inácio;Jardim Vergueiro;Sorocaba;SP;18030-005;-23.5180018;-47.4530326;06/10/2025
cobasi;Pet Shop Cobasi Sumaré;Avenida Sumaré;Perdizes;São Paulo;SP;05016-090;-23.548;-46.2392727778;06/10/2025
cobasi;Pet Shop Cobasi Sumaré ParkCity Shopping;Avenida Rebouças;Jardim Paulista;Sumaré;SP;13171-065;-22.8297121;-47.2664776;06/10/2025
cobasi;Pet Shop Cobasi São Bernardo Jurubatuba;Rua Jurubatuba;Centro;São Bernardo do Campo;SP;09725-001;-23.686529995;-46.5731576573;06/10/2025
cobasi;Pet Shop Cobasi São Caetano;Avenida Guido Aliberti;Santo Antônio;São Caetano do Sul;SP;09530-200;-23.623;-46.5525717152;06/10/2025
cobasi;Pet Shop Cobasi São Carlos;Passeio dos Flamboyants;Parque Faber Castell I;São Carlos;SP;13561-352;-22.0087082;-47.8909263;06/10/2025
cobasi;Pet Shop Cobasi São José do Rio Preto Falavina;Avenida Domingos Falavina;Jardim Marajó;São José do Rio Preto;SP;15046-265;-20.7795492;-49.386255;06/10/2025
cobasi;Pet Shop Cobasi São José do Rio Preto Iguatemi;Avenida Presidente Juscelino Kubitschek de Oliveira;Iguatemi;São José do Rio Preto;SP;15093-340;-20.811761;-49.3762272;06/10/2025
cobasi;Pet Shop Cobasi São José dos Campos;Avenida Deputado Benedito Matarazzo;Parque Residencial Aquarius;São José dos Campos;SP;12246-840;-23.2184518;-45.9027805;06/10/2025
cobasi;Pet Shop Cobasi São José dos Campos Jardim Oriente;Rua Andorra;Jardim América;São José dos Campos;SP;12235-050;-23.2322233;-45.8971143;06/10/2025
cobasi;Pet Shop Cobasi São José dos Campos Nelson D'Ávila;Avenida Doutor Nelson D'Avila;Jardim São Dimas;São José dos Campos;SP;12245-030;-23.1921926;-45.8853637;06/10/2025
cobasi;Pet Shop Cobasi São José dos Pinhais Av. Torres;Avenida das Torres;São Pedro;São José dos Pinhais;PR;83005-450;-25.535;-49.2065984598;06/10/2025
cobasi;Pet Shop Cobasi São Judas;Avenida Jabaquara;Mirandópolis;São Paulo;SP;04045-003;-23.7784900271;-46.3845725253;06/10/2025
cobasi;Pet Shop Cobasi São Vicente;Avenida Presidente Wilson;Itararé;São Vicente;SP;11320-001;-23.9682565;-46.3762476;06/10/2025
cobasi;Pet Shop Cobasi Tamboré;Alameda Araguaia;Alphaville Industrial;Barueri;SP;06455-000;-23.5220700085;-46.876;06/10/2025
cobasi;Pet Shop Cobasi Tatuapé;Rua Visconde de Itaboraí;Vila Azevedo;São Paulo;SP;03308-050;-23.6987500219;-46.636;06/10/2025
cobasi;Pet Shop Cobasi Taubaté;Avenida Dom Pedro I;Terra Nova;Taubaté;SP;12081-810;-23.0295331;-45.538758;06/10/2025
cobasi;Pet Shop Cobasi Taubaté II;Avenida Charles Schnneider;Parque Senhor do Bonfim;Taubaté;SP;12040-000;-23.0315669;-45.59953;06/10/2025
cobasi;Pet Shop Cobasi Teodoro Sampaio;Rua Navarro de Andrade;Pinheiros;São Paulo;SP;05418-020;-23.1446199568;-47.07602262;06/10/2025
cobasi;Pet Shop Cobasi Teotônio Vilela;Avenida Senador Teotônio Vilela;Vila São José (Cidade Dutra);São Paulo;SP;04833-000;-23.8776700373;-46.636;06/10/2025
cobasi;Pet Shop Cobasi Tutoia;Rua Tutóia;Vila Mariana;São Paulo;SP;04007-002;-23.3221899761;-46.3896776545;06/10/2025
cobasi;Pet Shop Cobasi Uberaba;Praça Santos Dumont;Santos Dumont;Uberaba;MG;38050-590;-19.7473668;-47.939154;06/10/2025
cobasi;Pet Shop Cobasi Uberlândia;Avenida Rondon Pacheco;Tabajaras;Uberlândia;MG;38400-242;-18.9176448;-48.2657238;06/10/2025
cobasi;Pet Shop Cobasi Valinhos;Rua Luiz Spiandorelli Neto;Loteamento Paiquerê;Valinhos;SP;13271-570;-22.9812024;-47.0127132;06/10/2025
cobasi;Pet Shop Cobasi Via Parque Shopping;Avenida Ayrton Senna 3000;Barra da Tijuca;Rio de Janeiro;RJ;22775-904;-22.9826942;-43.362939;06/10/2025
cobasi;Pet Shop Cobasi Viamão;Avenida Senador Salgado Filho;Querência;Viamão;RS;94440-000;-30.0855900029;-51.0283044136;06/10/2025
cobasi;Pet Shop Cobasi Vila Velha;Rua Luciano das Neves 2418;Divino Espírito Santo;Vila Velha;ES;29107-900;-20.3477821;-40.2949528;06/10/2025
cobasi;Pet Shop Cobasi Villa Lobos;Rua Manoel Velasco;Vila Hamburguesa;São Paulo;SP;05319-010;-23.939590043;-46.636;06/10/2025
cobasi;Pet Shop Cobasi Vinhedo;Estrada da Boiada;Santa Rosa;Vinhedo;SP;13289-020;-23.0314931;-46.9876299;06/10/2025
cobasi;Pet Shop Cobasi Várzea Grande;Avenida Presidente Arthur Bernardes;Centro-Sul;Várzea Grande;MT;78125-100;-15.6515199;-56.1323601;06/10/2025
cobasi;Pet Shop Cobasi Água Branca;Avenida Francisco Matarazzo;Água Branca;São Paulo;SP;05001-000;-23.1856599608;-47.0312545895;06/10/2025
cobasi;Pet Shop Cobasi Águas Claras;Avenida Sibipiruna;Sul (Águas Claras);Brasília;DF;71928-720;-15.885750017;-48.0398915003;06/10/2025
cobasi;Pet Shop Mundo Pet Cobasi Aldeota;Avenida Senador Virgílio Távora;Aldeota;Fortaleza;CE;60170-078;-3.7357094;-38.5069693;06/10/2025
cobasi;Pet Shop Mundo Pet Cobasi Batista Campos;Travessa São Pedro;Campina;Belém;PA;66023-570;-1.4517346;-48.4999707;06/10/2025
cobasi;Pet Shop Mundo Pet Cobasi Brasília Águas Claras;Rua 35;Norte (Águas Claras);Brasília;DF;71919-000;-15.8352342;-48.0367863;06/10/2025
cobasi;Pet Shop Mundo Pet Cobasi Eusébio;Av. Eusébio de Queiroz;;Eusébio;CE;invalido;;;06/10/2025
cobasi;Pet Shop Mundo Pet Cobasi Fortaleza Washington Soares;Avenida Washington Soares;Engenheiro Luciano Cavalcante;Fortaleza;CE;60810-350;-3.7749868;-38.4876205;06/10/2025
cobasi;Pet Shop Mundo Pet Cobasi Goiânia Oeste;Avenida Portugal;Setor Oeste;Goiânia;GO;74140-020;-16.6890379;-49.2702758;06/10/2025
cobasi;Pet Shop Mundo Pet Cobasi Manaíra Shopping;Avenida Governador Flávio Ribeiro Coutinho;Parque Verde;Cabedelo;PB;58102-835;-6.9877215;-34.8287221;06/10/2025
cobasi;Pet Shop Mundo Pet Cobasi Salvador Graça;Avenida Euclydes da Cunha;Graça;Salvador;BA;40150-120;-12.9979705;-38.5200581;06/10/2025
cobasi;Pet Shop Mundo Pet Cobasi Salvador Shopping;Avenida Tancredo Neves 2915;Caminho das Árvores;Salvador;BA;41820-910;-12.9816038;-38.4643358;06/10/2025
cobasi;Pet Shop Mundo Pet Cobasi Tirol Natal;Avenida Prudente de Morais;Tirol;Natal;RN;59020-510;-5.8034577;-35.2011079;06/10/2025
cobasi;Pet&Fácil Washington Luis;Avenida Washington Luís;Santo Amaro;São Paulo;SP;04627-002;-23.6371354;-46.670923;06/10/2025
petlove;Loja Braz Leme;Rua Frei Machado;Jardim São Bento;São Paulo;SP;02525-050;-23.6300800092;-46.7255360624;06/10/2025
petlove;Loja Campo Belo;Rua Pascal;Campo Belo;São Paulo;SP;04616-001;-23.548;-46.9628262667;06/10/2025
petlove;Loja Cidade Jardim;Avenida Cidade Jardim;Jardim São Braz;Birigüi;SP;16202-055;-21.2872228;-50.322166;06/10/2025
petlove;Loja Moema;Avenida Juriti;Vila Uberabinha;São Paulo;SP;04520-000;-23.8378900329;-46.636;06/10/2025
petlove;Loja Oscar Freire;Rua Oscar Freire;Cerqueira César;São Paulo;SP;01426-000;-23.5640200086;-46.6534752477;06/10/2025
petlove;Loja Perdizes;Rua Ministro Godói;Perdizes;São Paulo;SP;05015-000;-23.1844899627;-46.2394691311;06/10/2025
petlove;Loja Petlove Ponta da Praia;Avenida Dino Bueno;Ponta da Praia;Santos;SP;11030-350;-23.9844523;-46.3018155;06/10/2025
petlove;Loja Portugal;Avenida Portugal;Centro;Santo André;SP;09040-011;-23.6621999978;-46.5399652504;06/10/2025
petlove;Loja Ribeirão Preto;Avenida Doutor Ângelo Gennaro Gallo;Jardim Nova Aliança Sul;Ribeirão Preto;SP;14027-000;-21.2165004;-47.8241364;06/10/2025
petlove;Loja Santos;Avenida Washington Luís;Gonzaga;Santos;SP;11055-000;-23.9673822;-46.3328146;06/10/2025
petlove;Loja Sócrates;Rua Sócrates;Vila Sofia;São Paulo;SP;04671-072;-23.8543600323;-46.636;06/10/2025
petlove;Loja Tatuapé;Rua Airi;Vila Gomes Cardim;São Paulo;SP;03310-010;-23.3970699802;-46.8006403283;06/10/2025
petlove;Loja Tutóia;Rua Tutóia;Vila Mariana;São Paulo;SP;04007-001;-23.3221899712;-46.636;06/10/2025
petlove;Quiosque Veros Hospital Veterinário;Avenida Brigadeiro Luís Antônio;Jardim Paulista;São Paulo;SP;01401-002;-23.548;-46.6513153845;06/10/2025
