empresa;nome;logradouro;bairro;cidade;estado;regiao;cep;populacao;latitude;longitude;renda_domiciliar_per_capita;cod_cidade;data_extracao
cobasi;Cobasi Getúlio Vargas - Osasco;Avenida Getúlio Vargas;;Osasco;SP;Sudeste;;756.952;;;2662.0;3534401.0;10/10/2025
cobasi;Cobasi Jandira Mall;Rua Manoel Alves Garcia;;Jandira;SP;Sudeste;;121.988;;;2662.0;3525003.0;10/10/2025
cobasi;Cobasi João Pessoa;Rua Bacharel José de Oliveira Curchatuz;;João Pessoa;PB;Nordeste;;888.679;;;1401.0;2507507.0;10/10/2025
cobasi;Cobasi Marília Esmeralda;Avenida das Esmeraldas;;Marília;SP;Sudeste;;246.627;;;2662.0;3529005.0;10/10/2025
cobasi;Cobasi Presidente Prudente;Avenida Onze de Maio;;Presidente Prudente;SP;Sudeste;;234.083;;;2662.0;3541406.0;10/10/2025
cobasi;Cobasi Riviera de São Lourenço;Rua Aprovada 239;;Bertioga;SP;Sudeste;;66.873;;;2662.0;3506359.0;10/10/2025
cobasi;Pet Shop Cobasi Alphaville;Alameda Rio Negro;Alphaville Centro Industrial e Empresarial/Alphaville.;Barueri;SP;Sudeste;06454-000;330.339;-23.5001099961;-46.8878758994;2662.0;3505708.0;10/10/2025
cobasi;Pet Shop Cobasi Alto da Boa Vista;Avenida Santo Amaro;Santo Amaro;São Paulo;SP;Sudeste;04702-002;11.895.578;-23.8577800354;-46.636;2662.0;3550308.0;10/10/2025
cobasi;Pet Shop Cobasi Alto de Pinheiros;Avenida General Furtado Nascimento;Alto de Pinheiros;São Paulo;SP;Sudeste;05465-070;11.895.578;-23.1392199516;-47.0819131554;2662.0;3550308.0;10/10/2025
cobasi;Pet Shop Cobasi Americana;Avenida Brasil;Jardim São Paulo;Americana;SP;Sudeste;13468-000;246.655;-22.7378463;-47.3335688;2662.0;3501608.0;10/10/2025
cobasi;Pet Shop Cobasi Andradas;Avenida dos Andradas;Pompéia;Belo Horizonte;MG;Sudeste;30280-020;2.416.339;-19.9161426;-43.9092584;2001.0;3106200.0;10/10/2025
cobasi;Pet Shop Cobasi Aracaju Rio Mar;Avenida Delmiro Gouveia;Coroa do Meio;Aracaju;SE;Nordeste;49035-500;628.849;-10.9594312;-37.0419023;1473.0;2800308.0;10/10/2025
cobasi;Pet Shop Cobasi Araraquara;Avenida Alberto Benassi;Jardim Bandeirantes;Araraquara;SP;Sudeste;14804-300;252.318;-21.7864532;-48.2205797;2662.0;3503208.0;10/10/2025
cobasi;Pet Shop Cobasi Araraquara Savegnago;Rua Maurício Gali;;Araraquara;SP;Sudeste;;252.318;;;2662.0;3503208.0;10/10/2025
cobasi;Pet Shop Cobasi Araçatuba;Rua Luiz Pereira Barreto;Vila São Paulo;Araçatuba;SP;Sudeste;16015-445;207.775;-21.2028539;-50.4536793;2662.0;3502804.0;10/10/2025
cobasi;Pet Shop Cobasi Assai Anhanguera;Rua Samuel Klabin 193;Bela Aliança;São Paulo;SP;Sudeste;05077-903;11.895.578;-23.4443199877;-46.636;2662.0;3550308.0;10/10/2025
cobasi;Pet Shop Cobasi Assaí Interlagos;Avenida Sargento Geraldo Sant'Ana;Jardim Taquaral;São Paulo;SP;Sudeste;04674-225;11.895.578;-23.2408299685;-46.9710730021;2662.0;3550308.0;10/10/2025
cobasi;Pet Shop Cobasi Assaí Marginal Tietê;Avenida Condessa Elisabeth de Robiano;Jardim América da Penha;São Paulo;SP;Sudeste;03704-000;11.895.578;-23.742400024;-46.8480590975;2662.0;3550308.0;10/10/2025
cobasi;Pet Shop Cobasi Atibaia;Rua José Alvim;Centro;Atibaia;SP;Sudeste;12940-750;166.043;-23.1164904;-46.5522265;2662.0;3504107.0;10/10/2025
cobasi;Pet Shop Cobasi Atibaia II;Avenida Brigadeiro José Vicente Faria Lima;Centro;Atibaia;SP;Sudeste;12940-284;166.043;-23.1175492;-46.5567066;2662.0;3504107.0;10/10/2025
cobasi;Pet Shop Cobasi Atlântica;Avenida Atlântica;Interlagos;São Paulo;SP;Sudeste;04772-005;11.895.578;-23.548;-46.2891459381;2662.0;3550308.0;10/10/2025
cobasi;Pet Shop Cobasi Augusta;Rua Augusta;Cerqueira César;São Paulo;SP;Sudeste;01412-000;11.895.578;-23.5330599959;-46.636;2662.0;3550308.0;10/10/2025
cobasi;Pet Shop Cobasi Av. Jundiaí;Avenida Jundiaí;Anhangabaú;Jundiaí;SP;Sudeste;13208-051;460.313;-23.1909011;-46.8999397;2662.0;3525904.0;10/10/2025
cobasi;Pet Shop Cobasi Av. Morumbi;Avenida Morumbi;Morumbi;São Paulo;SP;Sudeste;05606-200;11.895.578;-23.9710900446;-47.0975230552;2662.0;3550308.0;10/10/2025
cobasi;Pet Shop Cobasi Avenida São Miguel;Avenida São Miguel;Vila Norma;São Paulo;SP;Sudeste;08070-002;11.895.578;-24.0221200517;-46.1188114309;2662.0;3550308.0;10/10/2025
cobasi;Pet Shop Cobasi BH Belvedere;Rua Maria Luiza Santiago;Santa Lúcia;Belo Horizonte;MG;Sudeste;30360-740;2.416.339;-19.9734626;-43.9480794;2001.0;3106200.0;10/10/2025
cobasi;Pet Shop Cobasi BH Castelo;Avenida Heráclito Mourão de Miranda;Alípio de Melo;Belo Horizonte;MG;Sudeste;30840-032;2.416.339;-19.89405;-44.0041007;2001.0;3106200.0;10/10/2025
cobasi;Pet Shop Cobasi BH Contorno;Avenida do Contorno;Santa Efigênia;Belo Horizonte;MG;Sudeste;30110-017;2.416.339;-19.9139617;-43.9323353;2001.0;3106200.0;10/10/2025
cobasi;Pet Shop Cobasi BH Del Rey;Avenida Presidente Carlos Luz;Caiçaras;Belo Horizonte;MG;Sudeste;31250-010;2.416.339;-19.9012987;-43.9667394;2001.0;3106200.0;10/10/2025
cobasi;Pet Shop Cobasi Barra Carrefour;Avenida das Américas;Barra da Tijuca;Rio de Janeiro;RJ;Sudeste;22640-102;6.729.894;-22.9999428;-43.341407;2490.0;3304557.0;10/10/2025
cobasi;Pet Shop Cobasi Barra Guanabara;Avenida das Américas;Barra da Tijuca;Rio de Janeiro;RJ;Sudeste;22631-003;6.729.894;-23.0008235;-43.3456628;2490.0;3304557.0;10/10/2025
cobasi;Pet Shop Cobasi Barra Sul;Avenida Diário de Notícias;Cristal;Porto Alegre;RS;Sul;90810-080;1.389.322;-30.0504600069;-51.2098322109;2608.0;4314902.0;10/10/2025
cobasi;Pet Shop Cobasi Barreiros;Avenida Leoberto Leal;Barreiros;São José;SC;Sul;88117-001;289.949;-27.615;-48.6149989394;2601.0;4216602.0;10/10/2025
cobasi;Pet Shop Cobasi Barretos;Avenida Engenheiro Necker Carvalho de Camargos;América;Barretos;SP;Sudeste;14783-085;126.600;-20.5696797;-48.5757464;2662.0;3505500.0;10/10/2025
cobasi;Pet Shop Cobasi Bauru;Rua São Gonçalo;Vila Altinópolis;Bauru;SP;Sudeste;17012-170;391.740;-22.314459;-49.0586951;2662.0;3506003.0;10/10/2025
cobasi;Pet Shop Cobasi Belém Bosque Grão Pará;Passagem Cruzeiro;Mangueirão;Belém;PA;Norte;66640-840;1.398.531;-1.3794267;-48.453117;1344.0;1501402.0;10/10/2025
cobasi;Pet Shop Cobasi Birigui;Avenida Euclides Miragaia;Jardim Jussara Maria;Birigui;SP;Sudeste;16204-000;122.988;-21.3031528;-50.3585193;2662.0;3506508.0;10/10/2025
cobasi;Pet Shop Cobasi Blumenau Neumarkt;Rua Sete de Setembro;Centro;Blumenau;SC;Sul;89010-201;380.597;-26.919360001;-49.0655962518;2601.0;4202404.0;10/10/2025
cobasi;Pet Shop Cobasi Blumenau Norte Shopping;Rodovia BR-470;Salto do Norte;Blumenau;SC;Sul;89065-800;380.597;-26.8885799887;-49.0318833641;2601.0;4202404.0;10/10/2025
cobasi;Pet Shop Cobasi Botafogo;Rua Voluntários da Pátria;;Rio de Janeiro;RJ;Sudeste;;6.729.894;;;2490.0;3304557.0;10/10/2025
cobasi;Pet Shop Cobasi Botucatu Mall;Avenida Professor José Pedretti Neto;Conjunto Residencial Frei Fidelis;Botucatu;SP;Sudeste;18606-125;150.442;-22.898978;-48.4484111;2662.0;3507506.0;10/10/2025
cobasi;Pet Shop Cobasi Bragança Paulista;Rua Alpheu Grimello;Taboão;Bragança Paulista;SP;Sudeste;12916-010;184.634;-22.9743115;-46.5353135;2662.0;3507605.0;10/10/2025
cobasi;Pet Shop Cobasi Bragança Paulista - Av. dos Imigrantes;Avenida dos Imigrantes;;Bragança Paulista;SP;Sudeste;12802-000;184.634;;;2662.0;3507605.0;10/10/2025
cobasi;Pet Shop Cobasi Brasilia Venancio;SCS Quadra 8 Bloco B Lotes 50/60;Asa Sul;Brasília;DF;Centro-Oeste;70333-900;2.982.818;-15.820697;-47.917206;3444.0;5300108.0;10/10/2025
cobasi;Pet Shop Cobasi Brasília Asa Norte;Quadra SEPN 516 Bloco E;Asa Norte;Brasília;DF;Centro-Oeste;70770-525;2.982.818;-15.7766266;-47.8751937;3444.0;5300108.0;10/10/2025
cobasi;Pet Shop Cobasi Brasília CasaPark;SGCV Lote 09;Zona Industrial (Guará);Brasília;DF;Centro-Oeste;71215-900;2.982.818;-15.8102388;-47.9713115;3444.0;5300108.0;10/10/2025
cobasi;Pet Shop Cobasi Brasília Pistão Sul;Quadra Setor D Sul;Taguatinga Sul (Taguatinga);Brasília;DF;Centro-Oeste;72020-111;2.982.818;-15.8107481;-48.065751;3444.0;5300108.0;10/10/2025
cobasi;Pet Shop Cobasi Brasília Sia;Trecho SIA Trecho 2;Zona Industrial (Guará);Brasília;DF;Centro-Oeste;71200-020;2.982.818;-15.7872388;-47.9403153;3444.0;5300108.0;10/10/2025
cobasi;Pet Shop Cobasi Brasília Taquari;Avenida Comercial;Setor Habitacional Taquari (Lago Norte);Brasília;DF;Centro-Oeste;71551-010;2.982.818;-15.6956128426;-47.8729882757;3444.0;5300108.0;10/10/2025
cobasi;Pet Shop Cobasi Braz Leme;Avenida Braz Leme;Casa Verde;São Paulo;SP;Sudeste;02511-000;11.895.578;-23.5062973;-46.6438294;2662.0;3550308.0;10/10/2025
cobasi;Pet Shop Cobasi Brooklin;Avenida Washington Luís;Santo Amaro;São Paulo;SP;Sudeste;04627-003;11.895.578;-23.2466799676;-46.636;2662.0;3550308.0;10/10/2025
cobasi;Pet Shop Cobasi Buritis;Avenida Professor Mário Werneck;Buritis;Belo Horizonte;MG;Sudeste;30575-180;2.416.339;-19.975593;-43.9682604;2001.0;3106200.0;10/10/2025
cobasi;Pet Shop Cobasi Butantã;Avenida Professor Francisco Morato;Butantã;São Paulo;SP;Sudeste;05513-300;11.895.578;-23.1370599508;-46.636;2662.0;3550308.0;10/10/2025
cobasi;Pet Shop Cobasi Cachoeirinha;Avenida Parada Pinto;Vila Nova Cachoeirinha;São Paulo;SP;Sudeste;02611-002;11.895.578;-23.4599799904;-46.5399843544;2662.0;3550308.0;10/10/2025
cobasi;Pet Shop Cobasi Caminho do Mar;Avenida Caminho do Mar;Rudge Ramos;São Bernardo do Campo;SP;Sudeste;09609-000;840.499;-23.694540002;-46.565;2662.0;3548708.0;10/10/2025
cobasi;Pet Shop Cobasi Campinas Abolição;Rua da Abolição;Ponte Preta;Campinas;SP;Sudeste;13041-445;1.185.977;-22.9184528;-47.0546529;2662.0;3509502.0;10/10/2025
cobasi;Pet Shop Cobasi Campinas Amoreiras;Avenida Ruy Rodriguez;Jardim Novo Campos Elíseos;Campinas;SP;Sudeste;13060-192;1.185.977;-22.9099384;-47.0626332;2662.0;3509502.0;10/10/2025
cobasi;Pet Shop Cobasi Campinas Cambuí;Avenida Orosimbo Maia;Cambuí;Campinas;SP;Sudeste;13024-045;1.185.977;-22.8921264;-47.0546529;2662.0;3509502.0;10/10/2025
cobasi;Pet Shop Cobasi Campinas Cambuí II;Rua Coronel Francisco Andrade Coutinho;Cambuí;Campinas;SP;Sudeste;13025-190;1.185.977;-22.9048812;-47.0482191;2662.0;3509502.0;10/10/2025
cobasi;Pet Shop Cobasi Campinas Princesa d’ Oeste;Avenida Princesa D'Oeste;Jardim Paraíso;Campinas;SP;Sudeste;13100-040;1.185.977;-22.9122981;-47.0450109;2662.0;3509502.0;10/10/2025
cobasi;Pet Shop Cobasi Campinas Shopping Galleria;Avenida Doutor José Bonifácio Coutinho Nogueira 225;Jardim Madalena;Campinas;SP;Sudeste;13091-910;1.185.977;-22.9099384;-47.0626332;2662.0;3509502.0;10/10/2025
cobasi;Pet Shop Cobasi Campinas Taquaral;Avenida Doutor Theodureto de Almeida Camargo;Jardim Nossa Senhora Auxiliadora;Campinas;SP;Sudeste;13075-630;1.185.977;-22.8741326;-47.0694663;2662.0;3509502.0;10/10/2025
cobasi;Pet Shop Cobasi Campo Grande MS;Avenida Afonso Pena;Jardim dos Estados;Campo Grande;MS;Centro-Oeste;79020-000;954.537;-20.4697105;-54.6201211;2169.0;5002704.0;10/10/2025
cobasi;Pet Shop Cobasi Campo Limpo;Rua Doutor Joviano Pacheco de Aguirre;Jardim Bom Refúgio;São Paulo;SP;Sudeste;05788-290;11.895.578;-23.9897200453;-47.1178453836;2662.0;3550308.0;10/10/2025
cobasi;Pet Shop Cobasi Candangolandia;Setor de Postos e Motéis Sul I;Candangolândia;Brasília;DF;Centro-Oeste;71727-800;2.982.818;-15.8495671;-47.9490349;3444.0;5300108.0;10/10/2025
cobasi;Pet Shop Cobasi Canoas;Avenida Farroupilha;Marechal Rondon;Canoas;RS;Sul;92020-475;359.554;-29.9181800028;-51.184;2608.0;4304606.0;10/10/2025
cobasi;Pet Shop Cobasi Canoas BR116;Avenida Getulio Vargas;;Canoas;RS;Sul;92010-013;359.554;;;2608.0;4304606.0;10/10/2025
cobasi;Pet Shop Cobasi Cantareira Norte Shopping;Avenida Raimundo Pereira de Magalhães;Jardim Pirituba;São Paulo;SP;Sudeste;02984-035;11.895.578;-23.4295599827;-46.636;2662.0;3550308.0;10/10/2025
cobasi;Pet Shop Cobasi Carapicuíba;Avenida Desembargador Doutor Eduardo Cunha de Abreu;Vila Municipal;Carapicuíba;SP;Sudeste;06328-330;398.462;-23.523;-46.8306995218;2662.0;3510609.0;10/10/2025
cobasi;Pet Shop Cobasi Carrefour Nações;Avenida das Nações Unidas;Vila Gertrudes;São Paulo;SP;Sudeste;04794-000;11.895.578;-23.8691200376;-46.636;2662.0;3550308.0;10/10/2025
cobasi;Pet Shop Cobasi Carrão;Rua Serra de Botucatu;Vila Gomes Cardim;São Paulo;SP;Sudeste;03317-001;11.895.578;-23.3963499821;-46.636;2662.0;3550308.0;10/10/2025
cobasi;Pet Shop Cobasi Casa Forte;R. Leonardo Bezerra Cavalcanti;;Recife;PE;Nordeste;52060-030;1.587.707;;;1453.0;2611606.0;10/10/2025
cobasi;Pet Shop Cobasi Cascavel;Avenida Brasil;Região do Lago;Cascavel;PR;Sul;85812-500;364.104;-24.9518599954;-53.4504336442;2482.0;4104808.0;10/10/2025
cobasi;Pet Shop Cobasi Caxias do Sul;Avenida Therezinha Pauletti Sanvitto;Sanvitto;Caxias do Sul;RS;Sul;95110-195;479.256;-29.1959000071;-51.179;2608.0;4305108.0;10/10/2025
cobasi;Pet Shop Cobasi Cerro Corá;Rua Cerro Corá;Vila Romana;São Paulo;SP;Sudeste;05061-400;11.895.578;-23.1800799567;-46.2346585252;2662.0;3550308.0;10/10/2025
cobasi;Pet Shop Cobasi Comendador Agostinho - Limeira II;Avenida Comendador Agostinho Prada;Jardim Maria Bruschi Modeneis;Limeira;SP;Sudeste;13482-220;300.728;-22.5665354;-47.3974368;2662.0;3526902.0;10/10/2025
cobasi;Pet Shop Cobasi Conselheiro Rodrigues Alves;Rua Vergueiro;Vila Mariana;São Paulo;SP;Sudeste;04102-000;11.895.578;-23.5802582809;-46.6392371252;2662.0;3550308.0;10/10/2025
cobasi;Pet Shop Cobasi Continente Shopping;Rodovia BR-101;Distrito Industrial;São José;SC;Sul;88104-800;289.949;-27.6184200037;-48.624140309;2601.0;4216602.0;10/10/2025
cobasi;Pet Shop Cobasi Copacabana Posto 2;Avenida Nossa Senhora de Copacabana;Copacabana;Rio de Janeiro;RJ;Sudeste;22020-002;6.729.894;-22.9638439;-43.1736318;2490.0;3304557.0;10/10/2025
cobasi;Pet Shop Cobasi Corifeu;Avenida Corifeu de Azevedo Marques;Butantã;São Paulo;SP;Sudeste;05582-000;11.895.578;-23.9683900444;-46.1774222099;2662.0;3550308.0;10/10/2025
cobasi;Pet Shop Cobasi Cotia;Rua Luiz Silva;Parque Rincão;Cotia;SP;Sudeste;06716-030;287.004;-23.5922099921;-46.9061335148;2662.0;3513009.0;10/10/2025
cobasi;Pet Shop Cobasi Criciúma;Avenida Jorge Elias de Lucca;Nossa Senhora da Salete;Criciúma;SC;Sul;88813-390;225.281;-28.6668399983;-49.37;2601.0;4204608.0;10/10/2025
cobasi;Pet Shop Cobasi Cuiabá CPA;Avenida Historiador Rubens de Mendonça;Bosque da Saúde;Cuiabá;MT;Centro-Oeste;78050-000;682.932;-15.5883253;-56.0836532;2276.0;5103403.0;10/10/2025
cobasi;Pet Shop Cobasi Curitiba Linha Verde;Avenida Senador Salgado Filho;Prado Velho;Curitiba;PR;Sul;80215-270;1.829.225;-25.4244899937;-49.2691134903;2482.0;4106902.0;10/10/2025
cobasi;Pet Shop Cobasi Curitiba Mario Tourinho;Rua General Mario Tourinho;;Curitiba;PR;Sul;80740-016;1.829.225;;;2482.0;4106902.0;10/10/2025
cobasi;Pet Shop Cobasi Curitiba Novo Mundo;Rua Isaac Guelmann;Novo Mundo;Curitiba;PR;Sul;81050-030;1.829.225;-25.410719998;-49.2921335542;2482.0;4106902.0;10/10/2025
cobasi;Pet Shop Cobasi DF Gama;Quadra Quadra 55;Setor Central (Gama);Brasília;DF;Centro-Oeste;72405-550;2.982.818;-16.019879;-48.0670828;3444.0;5300108.0;10/10/2025
cobasi;Pet Shop Cobasi DF Planaltina;Área AEN 19;Setor Norte (Planaltina);Planaltina;GO;Centro-Oeste;73340-190;110.619;-15.6060191;-47.6603747;2098.0;5217609.0;10/10/2025
cobasi;Pet Shop Cobasi DF Plaza Shopping;Rua Copaíba;Norte (Águas Claras);Brasília;DF;Centro-Oeste;71919-540;2.982.818;-15.8336667;-48.039146;3444.0;5300108.0;10/10/2025
cobasi;Pet Shop Cobasi Diadema;Avenida Presidente Kennedy;Centro;Diadema;SP;Sudeste;09913-000;404.118;-23.6877100081;-46.623;2662.0;3513801.0;10/10/2025
cobasi;Pet Shop Cobasi Eco Mall Pinheirinho;Rodovia BR-116;Xaxim;Curitiba;PR;Sul;81690-300;1.829.225;-25.3830899924;-49.2232726872;2482.0;4106902.0;10/10/2025
cobasi;Pet Shop Cobasi Embu das Artes;Rua Alexandre Kadunc;Tingidor;Embu das Artes;SP;Sudeste;06803-045;259.323;-23.652609;-46.8487976;2662.0;3515004.0;10/10/2025
cobasi;Pet Shop Cobasi Embu das Artes II;Rua São Luiz;Centro;Embu das Artes;SP;Sudeste;06840-050;259.323;-23.649;-46.8418801256;2662.0;3515004.0;10/10/2025
cobasi;Pet Shop Cobasi Engenheiro Caetano Alvares;Av. Eng. Caetano Álvares;;São Paulo;SP;Sudeste;;11.895.578;;;2662.0;3550308.0;10/10/2025
cobasi;Pet Shop Cobasi Epitácio Pessoa;Avenida Presidente Epitácio Pessoa;Tambauzinho;João Pessoa;PB;Nordeste;58042-006;888.679;-7.1236539;-34.8472401;1401.0;2507507.0;10/10/2025
cobasi;Pet Shop Cobasi Ermano Marchetti;Rua Luiz Gatti;Água Branca;São Paulo;SP;Sudeste;05038-150;11.895.578;-23.9136700368;-46.2371129198;2662.0;3550308.0;10/10/2025
cobasi;Pet Shop Cobasi Estr. do Campo Limpo;Estrada do Campo Limpo;Pirajussara;São Paulo;SP;Sudeste;05787-000;11.895.578;-23.1063699481;-46.1542527848;2662.0;3550308.0;10/10/2025
cobasi;Pet Shop Cobasi Estrada de Itapecerica;Estrada de Itapecerica;Vila Maracanã;São Paulo;SP;Sudeste;05835-005;11.895.578;-23.1004299469;-46.1477732007;2662.0;3550308.0;10/10/2025
cobasi;Pet Shop Cobasi Feira de Santana;Avenida Governador João Durval Carneiro;Tomba;Feira de Santana;BA;Nordeste;44090-008;657.948;-12.2958364;-38.9485423;1366.0;2910800.0;10/10/2025
cobasi;Pet Shop Cobasi Florianópolis;Rodovia José Carlos Daux;Saco Grande;Florianópolis;SC;Sul;88032-005;576.361;-27.597;-48.5435160762;2601.0;4205407.0;10/10/2025
cobasi;Pet Shop Cobasi Florianópolis Centro;Rua Francisco Tolentino;Centro;Florianópolis;SC;Sul;88010-200;576.361;-27.5967299983;-48.5493046639;2601.0;4205407.0;10/10/2025
cobasi;Pet Shop Cobasi Fortaleza Aldeota;Avenida Santos Dumont;Aldeota;Fortaleza;CE;Nordeste;60150-162;2.574.412;-3.7357094;-38.5069693;1225.0;2304400.0;10/10/2025
cobasi;Pet Shop Cobasi Fortaleza Meireles;Avenida Barão de Studart;Aldeota;Fortaleza;CE;Nordeste;60120-024;2.574.412;-3.7357094;-38.5069693;1225.0;2304400.0;10/10/2025
cobasi;Pet Shop Cobasi Fortaleza Open Mall;Avenida Washington Soares;Engenheiro Luciano Cavalcante;Fortaleza;CE;Nordeste;60810-350;2.574.412;-3.7749868;-38.4876205;1225.0;2304400.0;10/10/2025
cobasi;Pet Shop Cobasi Franca;Avenida Doutor Antônio Barboza Filho;Jardim Francano;Franca;SP;Sudeste;14405-000;364.331;-20.5428416;-47.4081341;2662.0;3516200.0;10/10/2025
cobasi;Pet Shop Cobasi Frei Gaspar;Avenida Brigadeiro Faria Lima;Centro;São Bernardo do Campo;SP;Sudeste;09720-010;840.499;-23.7005700093;-46.5721748124;2662.0;3548708.0;10/10/2025
cobasi;Pet Shop Cobasi Goiânia Decathlon;Avenida I;Jardim Goiás;Goiânia;GO;Centro-Oeste;74810-075;1.494.599;-16.6486358;-49.1885389;2098.0;5208707.0;10/10/2025
cobasi;Pet Shop Cobasi Goiânia T63;Avenida T 63;Anhanguera;Goiânia;GO;Centro-Oeste;74335-104;1.494.599;-16.7202577;-49.3009077;2098.0;5208707.0;10/10/2025
cobasi;Pet Shop Cobasi Granja Vianna;Avenida Marginal;Parque São George;Cotia;SP;Sudeste;06708-030;287.004;-23.604;-46.911830128;2662.0;3513009.0;10/10/2025
cobasi;Pet Shop Cobasi Guarujá;Avenida Leomil;Pitangueiras;Guarujá;SP;Sudeste;11410-160;294.973;-23.9948444;-46.2568678;2662.0;3518701.0;10/10/2025
cobasi;Pet Shop Cobasi Guarulhos;Avenida Aniello Pratici;Jardim Santa Francisca;Guarulhos;SP;Sudeste;07013-000;1.345.364;-23.4634500008;-46.533;2662.0;3518800.0;10/10/2025
cobasi;Pet Shop Cobasi Guarulhos Centro;Rua Egisto Thomaz;Jardim Maia;Guarulhos;SP;Sudeste;07115-180;1.345.364;-23.440589996;-46.5085700651;2662.0;3518800.0;10/10/2025
cobasi;Pet Shop Cobasi Guarulhos Sakamoto;Rodovia Presidente Dutra KM 210;;Guarulhos;SP;Sudeste;;1.345.364;;;2662.0;3518800.0;10/10/2025
cobasi;Pet Shop Cobasi Guarulhos Timóteo Penteado;Avenida Doutor Timóteo Penteado;Vila Hulda;Guarulhos;SP;Sudeste;07094-000;1.345.364;-23.4817200081;-46.5125926597;2662.0;3518800.0;10/10/2025
cobasi;Pet Shop Cobasi Higienópolis;Avenida Angélica;Santa Cecília;São Paulo;SP;Sudeste;01228-000;11.895.578;-23.5403499917;-46.6443449262;2662.0;3550308.0;10/10/2025
cobasi;Pet Shop Cobasi Iguatemi Campinas;Avenida Iguatemi;Vila Brandina;Campinas;SP;Sudeste;13092-500;1.185.977;-22.8936642;-47.0278715;2662.0;3509502.0;10/10/2025
cobasi;Pet Shop Cobasi Iguatemi Fortaleza;Rua Albert Sabin;Guararapes;Fortaleza;CE;Nordeste;60810-060;2.574.412;-3.7318616;-38.5266704;1225.0;2304400.0;10/10/2025
cobasi;Pet Shop Cobasi Imigrantes;Avenida Professor Abraão de Morais;Saúde;São Paulo;SP;Sudeste;04123-011;11.895.578;-23.548;-46.8962632735;2662.0;3550308.0;10/10/2025
cobasi;Pet Shop Cobasi Imirim;Avenida Imirim;Imirim;São Paulo;SP;Sudeste;02465-300;11.895.578;-23.6262100157;-46.5506854769;2662.0;3550308.0;10/10/2025
cobasi;Pet Shop Cobasi Indaiatuba;Avenida Presidente Vargas;Cidade Nova I;Indaiatuba;SP;Sudeste;13334-085;267.796;-23.0871466;-47.2045596;2662.0;3520509.0;10/10/2025
cobasi;Pet Shop Cobasi Interlar Interlagos;Avenida Interlagos;Jardim Umuarama;São Paulo;SP;Sudeste;04661-100;11.895.578;-23.242269969;-46.636;2662.0;3550308.0;10/10/2025
cobasi;Pet Shop Cobasi Itajaí;Avenida Osvaldo Reis;Praia Brava de Itajaí;Itajaí;SC;Sul;88306-600;287.289;-26.9060199954;-48.6642203974;2601.0;4208203.0;10/10/2025
cobasi;Pet Shop Cobasi Itaquaquecetuba D'avó;Avenida Ítalo Adami;Vila Zeferina;Itaquaquecetuba;SP;Sudeste;08573-000;382.521;-23.486;-46.3504532325;2662.0;3523107.0;10/10/2025
cobasi;Pet Shop Cobasi Itaquera;Avenida Itaquera;;São Paulo;SP;Sudeste;;11.895.578;;;2662.0;3550308.0;10/10/2025
cobasi;Pet Shop Cobasi Jabaquara;Avenida Engenheiro George Corbisier;Jabaquara;São Paulo;SP;Sudeste;04345-001;11.895.578;-23.6482179;-46.6457286;2662.0;3550308.0;10/10/2025
cobasi;Pet Shop Cobasi Jaboatão Dos Guararapes;Avenida Bernardo Vieira de Melo;Piedade;Jaboatão dos Guararapes;PE;Nordeste;54410-010;683.285;-8.1775463;-34.9170705;1453.0;2607901.0;10/10/2025
cobasi;Pet Shop Cobasi Jacareí Tenda;Praça Charles Gates;Jardim das Indústrias;Jacareí;SP;Sudeste;12306-090;249.968;-23.2987827;-45.9662542;2662.0;3524402.0;10/10/2025
cobasi;Pet Shop Cobasi Jardim Japão;Avenida Jardim Japão;Jardim Brasil (Zona Norte);São Paulo;SP;Sudeste;02221-001;11.895.578;-23.5904800081;-46.636;2662.0;3550308.0;10/10/2025
cobasi;Pet Shop Cobasi Jaú;Avenida Anna Claudina;Jardim Estádio;Jaú;SP;Sudeste;17203-381;137.323;-22.3019794;-48.5711073;2662.0;3525300.0;10/10/2025
cobasi;Pet Shop Cobasi Jd. Botânico;CJ SMDB AREA ESPECIAL D;;Brasília;DF;Centro-Oeste;;2.982.818;;;3444.0;5300108.0;10/10/2025
cobasi;Pet Shop Cobasi Joinville;Avenida Rolf Wiest;Bom Retiro;Joinville;SC;Sul;89223-005;654.888;-26.304;-48.8668822445;2601.0;4209102.0;10/10/2025
cobasi;Pet Shop Cobasi Juiz de Fora Jardim Norte;Rua Bernardo Mascarenhas;Mariano Procópio;Juiz de Fora;MG;Sudeste;36080-000;565.764;-21.7466546;-43.3645759;2001.0;3136702.0;10/10/2025
cobasi;Pet Shop Cobasi Jundiaí;Rua José Amato;Ponte de Campinas;Jundiaí;SP;Sudeste;13201-141;460.313;-23.1753283;-46.896855;2662.0;3525904.0;10/10/2025
cobasi;Pet Shop Cobasi Lauro de Freitas;Avenida Santos Dumont;Pitangueiras;Lauro de Freitas;BA;Nordeste;42701-260;217.960;-12.8983086;-38.3315104;1366.0;2919207.0;10/10/2025
cobasi;Pet Shop Cobasi Limeira;Avenida Carlos Kuntz Busch 800;Parque Egisto Ragazzo;Limeira;SP;Sudeste;13485-905;300.728;-22.5319933;-47.3865929;2662.0;3526902.0;10/10/2025
cobasi;Pet Shop Cobasi Londrina Centro;Rua Minas Gerais;Centro;Londrina;PR;Sul;86010-170;577.318;-23.3102700011;-51.162706002;2482.0;4113700.0;10/10/2025
cobasi;Pet Shop Cobasi Londrina Madre Leônia;Avenida Madre Leônia Milito;Bela Suiça;Londrina;PR;Sul;86050-270;577.318;-23.2897499895;-51.163;2482.0;4113700.0;10/10/2025
cobasi;Pet Shop Cobasi M'Boi Mirim;Estrada do M'Boi Mirim;Jardim Regina;São Paulo;SP;Sudeste;04905-002;11.895.578;-23.1954699595;-46.636;2662.0;3550308.0;10/10/2025
cobasi;Pet Shop Cobasi Maceió Fernandes Lima;Avenida Fernandes Lima;Farol;Maceió;AL;Nordeste;57055-000;994.464;-9.644236;-35.7353057;1331.0;2704302.0;10/10/2025
cobasi;Pet Shop Cobasi Maracanaú;Rua João de Alencar;Centro;Maracanaú;CE;Nordeste;61900-150;249.684;-3.879072;-38.6235321;1225.0;2307650.0;10/10/2025
cobasi;Pet Shop Cobasi Marechal Tito;Avenida Marechal Tito;São Miguel Paulista;São Paulo;SP;Sudeste;08022-000;11.895.578;-23.0829699511;-46.636;2662.0;3550308.0;10/10/2025
cobasi;Pet Shop Cobasi Marginal Pinheiros;Avenida das Nações Unidas;Vila Almeida;São Paulo;SP;Sudeste;04795-100;11.895.578;-23.2268799659;-46.9862902068;2662.0;3550308.0;10/10/2025
cobasi;Pet Shop Cobasi Marginal Tietê;Rua Maria Prestes Maia;Vila Guilherme;São Paulo;SP;Sudeste;02047-000;11.895.578;-23.520549989;-46.6659435382;2662.0;3550308.0;10/10/2025
cobasi;Pet Shop Cobasi Maringá;Avenida João Paulino Vieira Filho;Zona 01;Maringá;PR;Sul;87020-015;425.983;-23.4277900063;-51.9359593904;2482.0;4115200.0;10/10/2025
cobasi;Pet Shop Cobasi Marília;Avenida Sampaio Vidal;Centro;Marília;SP;Sudeste;17500-022;246.627;-22.2175846;-49.9505291;2662.0;3529005.0;10/10/2025
cobasi;Pet Shop Cobasi Minas Shopping;Avenida Cristiano Machado;;Belo Horizonte;MG;Sudeste;31160-959;2.416.339;;;2001.0;3106200.0;10/10/2025
cobasi;Pet Shop Cobasi Moema Pássaros;Avenida Ibirapuera;Indianópolis;São Paulo;SP;Sudeste;04028-002;11.895.578;-23.548;-46.3865360374;2662.0;3550308.0;10/10/2025
cobasi;Pet Shop Cobasi Moinhos dos Ventos;Rua Miguel Tostes;Rio Branco;Porto Alegre;RS;Sul;90430-060;1.389.322;-30.033;-51.2181488219;2608.0;4314902.0;10/10/2025
cobasi;Pet Shop Cobasi Mooca;Avenida Alcântara Machado;Brás;São Paulo;SP;Sudeste;03101-000;11.895.578;-23.419839982;-46.7758019259;2662.0;3550308.0;10/10/2025
cobasi;Pet Shop Cobasi Morumbi;Avenida Giovanni Gronchi;Vila Andrade;São Paulo;SP;Sudeste;05724-003;11.895.578;-23.1148299492;-46.1634812825;2662.0;3550308.0;10/10/2025
cobasi;Pet Shop Cobasi Natal;Avenida Senador Salgado Filho;Lagoa Nova;Natal;RN;Nordeste;59076-000;785.368;-5.8259362;-35.2099611;1616.0;2408102.0;10/10/2025
cobasi;Pet Shop Cobasi Niterói;Rua Marechal Deodoro;Centro;Niterói;RJ;Sudeste;24030-060;516.720;-22.8895663;-43.1191126;2490.0;3303302.0;10/10/2025
cobasi;Pet Shop Cobasi Nossa Senhora do Carmo;Beco São Paulo;Santa Rita de Cássia;Belo Horizonte;MG;Sudeste;30335-300;2.416.339;-19.9529456;-43.94026;2001.0;3106200.0;10/10/2025
cobasi;Pet Shop Cobasi Nova Cantareira;Avenida Nova Cantareira;;São Paulo;SP;Sudeste;;11.895.578;;;2662.0;3550308.0;10/10/2025
cobasi;Pet Shop Cobasi Novo Hamburgo;Avenida Primeiro de Março;Pátria Nova;Novo Hamburgo;RS;Sul;93320-102;235.879;-29.6968555;-51.1312489;2608.0;4313409.0;10/10/2025
cobasi;Pet Shop Cobasi Osasco;Avenida dos Autonomistas;Centro;Osasco;SP;Sudeste;06090-010;756.952;-23.5234599921;-46.8024054244;2662.0;3534401.0;10/10/2025
cobasi;Pet Shop Cobasi Osasco João Andrade;Avenida João de Andrade;Santo Antônio;Osasco;SP;Sudeste;06132-006;756.952;-23.533;-46.7777661708;2662.0;3534401.0;10/10/2025
cobasi;Pet Shop Cobasi POA Assis Brasil;Avenida Assis Brasil;Jardim Lindóia;Porto Alegre;RS;Sul;91010-003;1.389.322;-30.0569400052;-51.2576527369;2608.0;4314902.0;10/10/2025
cobasi;Pet Shop Cobasi POA Av. Brasil;Avenida Brasil;Navegantes;Porto Alegre;RS;Sul;90230-061;1.389.322;-30.0267899985;-51.2371730785;2608.0;4314902.0;10/10/2025
cobasi;Pet Shop Cobasi POA Bollogna Mall;Avenida Coronel Marcos;Pedra Redonda;Porto Alegre;RS;Sul;91760-000;1.389.322;-29.9690099925;-51.1560861131;2608.0;4314902.0;10/10/2025
cobasi;Pet Shop Cobasi POA Central Parque;Avenida Ipiranga;Jardim Botânico;Porto Alegre;RS;Sul;91530-000;1.389.322;-30.0851100109;-51.2901914831;2608.0;4314902.0;10/10/2025
cobasi;Pet Shop Cobasi Palmas;Quadra 105 Norte Alameda das Aroeiras;Plano Diretor Norte;Palmas;TO;Norte;77001-048;323.625;-10.1778543316;-48.3453318282;1737.0;1721000.0;10/10/2025
cobasi;Pet Shop Cobasi Park Shopping Jacarepaguá;Rua Francisco Dantas;Freguesia (Jacarepaguá);Rio de Janeiro;RJ;Sudeste;22753-045;6.729.894;-22.9465657;-43.3406704;2490.0;3304557.0;10/10/2025
cobasi;Pet Shop Cobasi Parque Olímpico;Avenida Embaixador Abelardo Bueno;Barra da Tijuca;Rio de Janeiro;RJ;Sudeste;22775-040;6.729.894;-22.9727518094;-43.3884886319;2490.0;3304557.0;10/10/2025
cobasi;Pet Shop Cobasi Passo Fundo Shopping;Avenida Presidente Vargas;São Cristóvão;Passo Fundo;RS;Sul;99064-000;214.564;-28.2512099968;-52.3936141843;2608.0;4314100.0;10/10/2025
cobasi;Pet Shop Cobasi Paulínia;Avenida José Paulino;Morumbi;Paulínia;SP;Sudeste;13140-723;115.690;-22.7585615;-47.1596551;2662.0;3536505.0;10/10/2025
cobasi;Pet Shop Cobasi Pelotas;Avenida Ferreira Viana;Areal;Pelotas;RS;Sul;96085-000;336.131;-31.772;-52.3312491227;2608.0;4314407.0;10/10/2025
cobasi;Pet Shop Cobasi Pinhais;Rua Primeiro de Maio;Centro;Pinhais;PR;Sul;83323-020;131.199;-25.4431999951;-49.194993365;2482.0;4119152.0;10/10/2025
cobasi;Pet Shop Cobasi Piracicaba;Avenida Limeira;Areião;Piracicaba;SP;Sudeste;13414-018;438.827;-22.7033977;-47.6516183;2662.0;3538709.0;10/10/2025
cobasi;Pet Shop Cobasi Piracicaba Independência;Avenida Independência;Cidade Alta;Piracicaba;SP;Sudeste;13419-160;438.827;-22.7347253;-47.6497317;2662.0;3538709.0;10/10/2025
cobasi;Pet Shop Cobasi Poa Wenceslau Escobar;Avenida Wenceslau Escobar;Cristal;Porto Alegre;RS;Sul;91900-000;1.389.322;-29.9598299876;-51.23;2608.0;4314902.0;10/10/2025
cobasi;Pet Shop Cobasi Pompéia;Rua Carlos Vicari;Água Branca;São Paulo;SP;Sudeste;05033-070;11.895.578;-23.548;-47.0341998539;2662.0;3550308.0;10/10/2025
cobasi;Pet Shop Cobasi Ponta Grossa;Avenida Ernesto Vilela;Nova Rússia;Ponta Grossa;PR;Sul;84070-000;372.562;-25.1167800028;-50.1379497979;2482.0;4119905.0;10/10/2025
cobasi;Pet Shop Cobasi Ponta Grossa II;Rua Ermelino de Leão;Olarias;Ponta Grossa;PR;Sul;84035-000;372.562;-25.0850099959;-50.1730312942;2482.0;4119905.0;10/10/2025
cobasi;Pet Shop Cobasi Portal do Morumbi;Avenida Doutor Guilherme Dumont Vilares 1210/1230;Jardim Londrina;São Paulo;SP;Sudeste;05640-902;11.895.578;-23.548;-46.763235456;2662.0;3550308.0;10/10/2025
cobasi;Pet Shop Cobasi Porto Alegre Iguatemi;Rua Antônio Carlos Berta;Jardim Europa;Porto Alegre;RS;Sul;91340-020;1.389.322;-30.033;-51.279379889;2608.0;4314902.0;10/10/2025
cobasi;Pet Shop Cobasi Porto Alegre Ipiranga;Avenida Ipiranga;Partenon;Porto Alegre;RS;Sul;90610-001;1.389.322;-30.0191399903;-51.246009487;2608.0;4314902.0;10/10/2025
cobasi;Pet Shop Cobasi Praia Grande;Avenida Ayrton Senna da Silva;Sítio do Campo;Praia Grande;SP;Sudeste;11726-000;365.577;-23.99403;-46.4061432;2662.0;3541000.0;10/10/2025
cobasi;Pet Shop Cobasi Praia Grande Ocian;Avenida Presidente Kennedy;Ocian;Praia Grande;SP;Sudeste;11704-105;365.577;-24.025682;-46.479251;2662.0;3541000.0;10/10/2025
cobasi;Pet Shop Cobasi Praça da Árvore;Avenida Jabaquara;Mirandópolis;São Paulo;SP;Sudeste;04046-000;11.895.578;-23.317419971;-46.636;2662.0;3550308.0;10/10/2025
cobasi;Pet Shop Cobasi RJ Norte Shopping;Avenida Dom Hélder Câmara 5474;Cachambi;Rio de Janeiro;RJ;Sudeste;20771-900;6.729.894;-22.8814021;-43.2934758;2490.0;3304557.0;10/10/2025
cobasi;Pet Shop Cobasi Raposo Tavares;Rodovia Raposo Tavares;Conjunto Residencial Butantã;São Paulo;SP;Sudeste;05576-000;11.895.578;-23.548;-46.1779130886;2662.0;3550308.0;10/10/2025
cobasi;Pet Shop Cobasi Rebouças;Avenida Rebouças;Pinheiros;São Paulo;SP;Sudeste;05402-300;11.895.578;-23.146329956;-46.1978427136;2662.0;3550308.0;10/10/2025
cobasi;Pet Shop Cobasi Recife;Rua Padre Carapuceiro;;Recife;PE;Nordeste;50020-280;1.587.707;;;1453.0;2611606.0;10/10/2025
cobasi;Pet Shop Cobasi Ribeirão Dom Pedro I;Avenida Dom Pedro I;Ipiranga;Ribeirão Preto;SP;Sudeste;14055-630;728.400;-21.1529926;-47.8231922;2662.0;3543402.0;10/10/2025
cobasi;Pet Shop Cobasi Ribeirão Preto II (loja Maurilio Biagi);Avenida Maurílio Biagi;Santa Cruz do José Jacques;Ribeirão Preto;SP;Sudeste;14020-750;728.400;-21.1704008;-47.8103238;2662.0;3543402.0;10/10/2025
cobasi;Pet Shop Cobasi Ribeirão Preto Iguatemi;Avenida Luiz Eduardo Toledo Prado;Vila do Golf;Ribeirão Preto;SP;Sudeste;14027-250;728.400;-21.1704008;-47.8103238;2662.0;3543402.0;10/10/2025
cobasi;Pet Shop Cobasi Ribeirão Preto Presidente Vargas;Praça Presidente Vargas;Vila Abranches;Ribeirão Preto;SP;Sudeste;14093-129;728.400;-21.18607;-47.7557423;2662.0;3543402.0;10/10/2025
cobasi;Pet Shop Cobasi Ricardo Jafet;Avenida Doutor Ricardo Jafet;Vila Firmiano Pinto;São Paulo;SP;Sudeste;04123-030;11.895.578;-23.3093199739;-46.636;2662.0;3550308.0;10/10/2025
cobasi;Pet Shop Cobasi Rio das Pedras;Rua Jorge Ogushi;Jardim Vila Formosa;São Paulo;SP;Sudeste;03471-000;11.895.578;-23.548;-46.8201772583;2662.0;3550308.0;10/10/2025
cobasi;Pet Shop Cobasi Rio de Janeiro Campo Grande;Estrada do Monteiro;Campo Grande;Rio de Janeiro;RJ;Sudeste;23045-830;6.729.894;-22.9035842;-43.5662438;2490.0;3304557.0;10/10/2025
cobasi;Pet Shop Cobasi Rui Barbosa;Praça Rui Barbosa;Centro;Curitiba;PR;Sul;80010-030;1.829.225;-25.4280900038;-49.2729003419;2482.0;4106902.0;10/10/2025
cobasi;Pet Shop Cobasi SBC Faria Lima;Avenida Brigadeiro Faria Lima;Centro;São Bernardo do Campo;SP;Sudeste;09720-000;840.499;-23.700570008;-46.565;2662.0;3548708.0;10/10/2025
cobasi;Pet Shop Cobasi SP Ipiranga;Avenida Doutor Ricardo Jafet;Vila Firmiano Pinto;São Paulo;SP;Sudeste;04123-030;11.895.578;-23.3093199739;-46.636;2662.0;3550308.0;10/10/2025
cobasi;Pet Shop Cobasi Sabará;Rua Moacir Simões da Rocha;Jardim Itapeva;São Paulo;SP;Sudeste;04674-150;11.895.578;-23.2409199627;-46.9709748329;2662.0;3550308.0;10/10/2025
cobasi;Pet Shop Cobasi Salto;Avenida José Maria Marques de Oliveira;Vila Norma;Salto;SP;Sudeste;13327-300;140.125;-23.1825156;-47.312556;2662.0;3545209.0;10/10/2025
cobasi;Pet Shop Cobasi Salvador Rio Vermelho;Avenida Juracy Magalhães Júnior;Rio Vermelho;Salvador;BA;Nordeste;41940-060;2.568.928;-13.0057625;-38.4847772;1366.0;2927408.0;10/10/2025
cobasi;Pet Shop Cobasi Santa Bárbara d’Oeste Tivoli;Rua do Osmio;Jardim Mollon;Santa Bárbara d'Oeste;SP;Sudeste;13456-625;189.338;-22.7471;-47.3657;2662.0;3545803.0;10/10/2025
cobasi;Pet Shop Cobasi Santana;Rua Voluntários da Pátria;Santana;São Paulo;SP;Sudeste;02402-200;11.895.578;-23.4767199851;-46.713755009;2662.0;3550308.0;10/10/2025
cobasi;Pet Shop Cobasi Santo André Av. dos Estados;Avenida dos Estados;Parque Jaçatuba;Santo André;SP;Sudeste;09290-520;778.711;-23.6303399906;-46.538;2662.0;3547809.0;10/10/2025
cobasi;Pet Shop Cobasi Santo André P. Barreto;Praça Engenheiro Roldão dos Santos Ferreira;Paraíso;Santo André;SP;Sudeste;09190-695;778.711;-23.6878500049;-46.5119604594;2662.0;3547809.0;10/10/2025
cobasi;Pet Shop Cobasi Santo André Prestes Maia;Praça Uirapuru;Santa Maria;Santo André;SP;Sudeste;09071-220;778.711;-23.6573399912;-46.545271427;2662.0;3547809.0;10/10/2025
cobasi;Pet Shop Cobasi Santos Afonso Pena;Avenida Affonso Penna;Aparecida;Santos;SP;Sudeste;11020-002;429.567;-23.9590362;-46.3200008;2662.0;3548500.0;10/10/2025
cobasi;Pet Shop Cobasi Santos Conselheiro Nébias;Avenida Conselheiro Nébias;;Santos;SP;Sudeste;;429.567;;;2662.0;3548500.0;10/10/2025
cobasi;Pet Shop Cobasi Santos Francisco Glicério;Avenida General Francisco Glicério;Encruzilhada;Santos;SP;Sudeste;11065-400;429.567;-23.9673822;-46.3328146;2662.0;3548500.0;10/10/2025
cobasi;Pet Shop Cobasi Sena Madureira;Rua Sena Madureira;Vila Clementino;São Paulo;SP;Sudeste;04021-001;11.895.578;-23.3200299688;-46.3873214347;2662.0;3550308.0;10/10/2025
cobasi;Pet Shop Cobasi Shop. Estação Cuiabá;Avenida Miguel Sutil;Santa Rosa;Cuiabá;MT;Centro-Oeste;78040-365;682.932;-15.5874562;-56.1225948;2276.0;5103403.0;10/10/2025
cobasi;Pet Shop Cobasi Shopping Aricanduva;Avenida Aricanduva 5555;Jardim Santa Terezinha (Zona Leste);São Paulo;SP;Sudeste;03527-900;11.895.578;-23.5894000079;-46.6811607367;2662.0;3550308.0;10/10/2025
cobasi;Pet Shop Cobasi Shopping Eldorado;Avenida Rebouças;Pinheiros;São Paulo;SP;Sudeste;05402-600;11.895.578;-23.9496700432;-46.636;2662.0;3550308.0;10/10/2025
cobasi;Pet Shop Cobasi Sorocaba Av. São Paulo;Rua Antonio Fernandes;;Sorocaba;SP;Sudeste;;757.459;;;2662.0;3552205.0;10/10/2025
cobasi;Pet Shop Cobasi Sorocaba Itavuvu;Avenida Itavuvu;Jardim Maria Antônia Prado;Sorocaba;SP;Sudeste;18076-005;757.459;-23.4785453;-47.4746565;2662.0;3552205.0;10/10/2025
cobasi;Pet Shop Cobasi Sorocaba Pannunzio;Avenida Doutor Armando Pannunzio;Jardim Vera Cruz;Sorocaba;SP;Sudeste;18050-000;757.459;-23.523089;-47.4910365;2662.0;3552205.0;10/10/2025
cobasi;Pet Shop Cobasi Sorocaba Panorâmico;Avenida Comendador Pereira Inácio;Jardim Vergueiro;Sorocaba;SP;Sudeste;18030-005;757.459;-23.5180018;-47.4530326;2662.0;3552205.0;10/10/2025
cobasi;Pet Shop Cobasi Sumaré;Avenida Sumaré;Perdizes;São Paulo;SP;Sudeste;05016-090;11.895.578;-23.548;-46.2392727778;2662.0;3550308.0;10/10/2025
cobasi;Pet Shop Cobasi Sumaré ParkCity Shopping;Avenida Rebouças;Jardim Paulista;Sumaré;SP;Sudeste;13171-065;289.787;-22.8297121;-47.2664776;2662.0;3552403.0;10/10/2025
cobasi;Pet Shop Cobasi São Bernardo Jurubatuba;Rua Jurubatuba;Centro;São Bernardo do Campo;SP;Sudeste;09725-001;840.499;-23.686529995;-46.5731576573;2662.0;3548708.0;10/10/2025
cobasi;Pet Shop Cobasi São Caetano;Avenida Guido Aliberti;Santo Antônio;São Caetano do Sul;SP;Sudeste;09530-200;172.109;-23.623;-46.5525717152;2662.0;3548807.0;10/10/2025
cobasi;Pet Shop Cobasi São Carlos;Passeio dos Flamboyants;Parque Faber Castell I;São Carlos;SP;Sudeste;13561-352;265.294;-22.0087082;-47.8909263;2662.0;3548906.0;10/10/2025
cobasi;Pet Shop Cobasi São José do Rio Preto Falavina;Avenida Domingos Falavina;Jardim Marajó;São José do Rio Preto;SP;Sudeste;15046-265;501.597;-20.7795492;-49.386255;2662.0;3549805.0;10/10/2025
cobasi;Pet Shop Cobasi São José do Rio Preto Iguatemi;Avenida Presidente Juscelino Kubitschek de Oliveira;Iguatemi;São José do Rio Preto;SP;Sudeste;15093-340;501.597;-20.811761;-49.3762272;2662.0;3549805.0;10/10/2025
cobasi;Pet Shop Cobasi São José dos Campos;Avenida Deputado Benedito Matarazzo;Parque Residencial Aquarius;São José dos Campos;SP;Sudeste;12246-840;724.756;-23.2184518;-45.9027805;2662.0;3549904.0;10/10/2025
cobasi;Pet Shop Cobasi São José dos Campos Jardim Oriente;Rua Andorra;Jardim América;São José dos Campos;SP;Sudeste;12235-050;724.756;-23.2322233;-45.8971143;2662.0;3549904.0;10/10/2025
cobasi;Pet Shop Cobasi São José dos Campos Nelson D'Ávila;Avenida Doutor Nelson D'Avila;Jardim São Dimas;São José dos Campos;SP;Sudeste;12245-030;724.756;-23.1921926;-45.8853637;2662.0;3549904.0;10/10/2025
cobasi;Pet Shop Cobasi São José dos Pinhais Av. Torres;Avenida das Torres;São Pedro;São José dos Pinhais;PR;Sul;83005-450;345.644;-25.535;-49.2065984598;2482.0;4125506.0;10/10/2025
cobasi;Pet Shop Cobasi São Judas;Avenida Jabaquara;Mirandópolis;São Paulo;SP;Sudeste;04045-003;11.895.578;-23.7784900271;-46.3845725253;2662.0;3550308.0;10/10/2025
cobasi;Pet Shop Cobasi São Vicente;Avenida Presidente Wilson;Itararé;São Vicente;SP;Sudeste;11320-001;338.407;-23.9682565;-46.3762476;2662.0;3551009.0;10/10/2025
cobasi;Pet Shop Cobasi Tamboré;Alameda Araguaia;Alphaville Industrial;Barueri;SP;Sudeste;06455-000;330.339;-23.5220700085;-46.876;2662.0;3505708.0;10/10/2025
cobasi;Pet Shop Cobasi Tatuapé;Rua Visconde de Itaboraí;Vila Azevedo;São Paulo;SP;Sudeste;03308-050;11.895.578;-23.6987500219;-46.636;2662.0;3550308.0;10/10/2025
cobasi;Pet Shop Cobasi Taubaté;Avenida Dom Pedro I;Terra Nova;Taubaté;SP;Sudeste;12081-810;321.298;-23.0295331;-45.538758;2662.0;3554102.0;10/10/2025
cobasi;Pet Shop Cobasi Taubaté II;Avenida Charles Schnneider;Parque Senhor do Bonfim;Taubaté;SP;Sudeste;12040-000;321.298;-23.0315669;-45.59953;2662.0;3554102.0;10/10/2025
cobasi;Pet Shop Cobasi Teodoro Sampaio;Rua Navarro de Andrade;Pinheiros;São Paulo;SP;Sudeste;05418-020;11.895.578;-23.1446199568;-47.07602262;2662.0;3550308.0;10/10/2025
cobasi;Pet Shop Cobasi Teotônio Vilela;Avenida Senador Teotônio Vilela;Vila São José (Cidade Dutra);São Paulo;SP;Sudeste;04833-000;11.895.578;-23.8776700373;-46.636;2662.0;3550308.0;10/10/2025
cobasi;Pet Shop Cobasi Tutoia;Rua Tutóia;Vila Mariana;São Paulo;SP;Sudeste;04007-002;11.895.578;-23.3221899761;-46.3896776545;2662.0;3550308.0;10/10/2025
cobasi;Pet Shop Cobasi Uberaba;Praça Santos Dumont;Santos Dumont;Uberaba;MG;Sudeste;38050-590;354.142;-19.7473668;-47.939154;2001.0;3170107.0;10/10/2025
cobasi;Pet Shop Cobasi Uberlândia;Avenida Rondon Pacheco;Tabajaras;Uberlândia;MG;Sudeste;38400-242;754.954;-18.9176448;-48.2657238;2001.0;3170206.0;10/10/2025
cobasi;Pet Shop Cobasi Valinhos;Rua Luiz Spiandorelli Neto;Loteamento Paiquerê;Valinhos;SP;Sudeste;13271-570;131.277;-22.9812024;-47.0127132;2662.0;3556206.0;10/10/2025
cobasi;Pet Shop Cobasi Via Parque Shopping;Avenida Ayrton Senna 3000;Barra da Tijuca;Rio de Janeiro;RJ;Sudeste;22775-904;6.729.894;-22.9826942;-43.362939;2490.0;3304557.0;10/10/2025
cobasi;Pet Shop Cobasi Viamão;Avenida Senador Salgado Filho;Querência;Viamão;RS;Sul;94440-000;232.113;-30.0855900029;-51.0283044136;2608.0;4323002.0;10/10/2025
cobasi;Pet Shop Cobasi Vila Velha;Rua Luciano das Neves 2418;Divino Espírito Santo;Vila Velha;ES;Sudeste;29107-900;502.899;-20.3477821;-40.2949528;2111.0;3205200.0;10/10/2025
cobasi;Pet Shop Cobasi Villa Lobos;Rua Manoel Velasco;Vila Hamburguesa;São Paulo;SP;Sudeste;05319-010;11.895.578;-23.939590043;-46.636;2662.0;3550308.0;10/10/2025
cobasi;Pet Shop Cobasi Vinhedo;Estrada da Boiada;Santa Rosa;Vinhedo;SP;Sudeste;13289-020;79.235;-23.0314931;-46.9876299;2662.0;3556701.0;10/10/2025
cobasi;Pet Shop Cobasi Várzea Grande;Avenida Presidente Arthur Bernardes;Centro-Sul;Várzea Grande;MT;Centro-Oeste;78125-100;314.627;-15.6515199;-56.1323601;2276.0;5108402.0;10/10/2025
cobasi;Pet Shop Cobasi Água Branca;Avenida Francisco Matarazzo;Água Branca;São Paulo;SP;Sudeste;05001-000;11.895.578;-23.1856599608;-47.0312545895;2662.0;3550308.0;10/10/2025
cobasi;Pet Shop Cobasi Águas Claras;Avenida Sibipiruna;Sul (Águas Claras);Brasília;DF;Centro-Oeste;71928-720;2.982.818;-15.885750017;-48.0398915003;3444.0;5300108.0;10/10/2025
cobasi;Pet Shop Mundo Pet Cobasi Aldeota;Avenida Senador Virgílio Távora;Aldeota;Fortaleza;CE;Nordeste;60170-078;2.574.412;-3.7357094;-38.5069693;1225.0;2304400.0;10/10/2025
cobasi;Pet Shop Mundo Pet Cobasi Batista Campos;Travessa São Pedro;Campina;Belém;PA;Norte;66023-570;1.398.531;-1.4517346;-48.4999707;1344.0;1501402.0;10/10/2025
cobasi;Pet Shop Mundo Pet Cobasi Brasília Águas Claras;Rua 35;Norte (Águas Claras);Brasília;DF;Centro-Oeste;71919-000;2.982.818;-15.8352342;-48.0367863;3444.0;5300108.0;10/10/2025
cobasi;Pet Shop Mundo Pet Cobasi Eusébio;Av. Eusébio de Queiroz;;Eusébio;CE;Nordeste;61765-070;80.304;;;1225.0;2304285.0;10/10/2025
cobasi;Pet Shop Mundo Pet Cobasi Fortaleza Washington Soares;Avenida Washington Soares;Engenheiro Luciano Cavalcante;Fortaleza;CE;Nordeste;60810-350;2.574.412;-3.7749868;-38.4876205;1225.0;2304400.0;10/10/2025
cobasi;Pet Shop Mundo Pet Cobasi Goiânia Oeste;Avenida Portugal;Setor Oeste;Goiânia;GO;Centro-Oeste;74140-020;1.494.599;-16.6890379;-49.2702758;2098.0;5208707.0;10/10/2025
cobasi;Pet Shop Mundo Pet Cobasi Manaíra Shopping;Avenida Governador Flávio Ribeiro Coutinho;Parque Verde;Cabedelo;PB;Nordeste;58102-835;70.067;-6.9877215;-34.8287221;1401.0;2503209.0;10/10/2025
cobasi;Pet Shop Mundo Pet Cobasi Salvador Graça;Avenida Euclydes da Cunha;Graça;Salvador;BA;Nordeste;40150-120;2.568.928;-12.9979705;-38.5200581;1366.0;2927408.0;10/10/2025
cobasi;Pet Shop Mundo Pet Cobasi Salvador Shopping;Avenida Tancredo Neves 2915;Caminho das Árvores;Salvador;BA;Nordeste;41820-910;2.568.928;-12.9816038;-38.4643358;1366.0;2927408.0;10/10/2025
cobasi;Pet Shop Mundo Pet Cobasi Tirol Natal;Avenida Prudente de Morais;Tirol;Natal;RN;Nordeste;59020-510;785.368;-5.8034577;-35.2011079;1616.0;2408102.0;10/10/2025
cobasi;Pet&Fácil Washington Luis;Avenida Washington Luís;Santo Amaro;São Paulo;SP;Sudeste;04627-002;11.895.578;-23.6371354;-46.670923;2662.0;3550308.0;10/10/2025
PetCamp;;;;;;;;;;;;;10/10/2025
PetCamp;Americana - PetCamp Americana - Loja 049;Rua Olivindo Fonseca;Vila Margarida;Americana;SP;Sudeste;13473303;246.655;-22.7216711;-47.3072604;2662.0;3501608.0;10/10/2025
PetCamp;Amparo - PetCamp Amparo - Loja 115;R Comendador Guimarães;;Amparo;SP;Sudeste;;69.717;;;2662.0;3501905.0;10/10/2025
PetCamp;Araraquara - PetCamp Alameda - Loja 055;Avenida Francisco Vaz Filho;Jardim Brasil (Vila Xavier);Araraquara;SP;Sudeste;14811128;252.318;-21.7833875;-48.1580449;2662.0;3503208.0;10/10/2025
PetCamp;Araraquara - PetCamp Selmi - Loja 016;Avenida Queiroz Filho;Jardim das Roseiras;Araraquara;SP;Sudeste;14806017;252.318;-21.7674517;-48.1713546;2662.0;3503208.0;10/10/2025
PetCamp;Araraquara - PetCamp Damha - Loja 051;Avenida Jacarandá;Residencial Village Damha;Araraquara;SP;Sudeste;14804479;252.318;-21.7525009;-48.1939655;2662.0;3503208.0;10/10/2025
PetCamp;Araras - PetCamp Araras - 092;Rua Coronel André Ulson Júnior;Centro;Araras;SP;Sudeste;13600690;135.331;-22.3571981;-47.3807972;2662.0;3503307.0;10/10/2025
PetCamp;Araras - PetCamp Araras Belvedere - Loja 113;Av Padre Alarico Zacharias;;Araras;SP;Sudeste;;135.331;;;2662.0;3503307.0;10/10/2025
PetCamp;Araçatuba - PetCamp Araçatuba - Loja 106;Rua Rio Grande do Sul;Jardim Nova Yorque;Araçatuba;SP;Sudeste;16018015;207.775;-21.2231678;-50.4403572;2662.0;3502804.0;10/10/2025
PetCamp;Avaré - Avaré - 080;Travessa Tenente Cabral;Braz I;Avaré;SP;Sudeste;18701181;96.098;-23.0988802;-48.9172182;2662.0;3504503.0;10/10/2025
PetCamp;Barretos - Petcamp Barretos Industrial - 097;Avenida Manoel Serafim;Industrial;Barretos;SP;Sudeste;14783285;126.600;-20.5722856;-48.5587171;2662.0;3505500.0;10/10/2025
PetCamp;Barretos - PetCamp Barretos - Loja 062;Avenida Pedro Lelis Dias;Nobre Ville;Barretos;SP;Sudeste;14783700;126.600;-20.5470672;-48.5769021;2662.0;3505500.0;10/10/2025
PetCamp;Bauru - PetCamp Bauru Centro- Loja 108;Rua Gustavo maciel;;Bauru;SP;Sudeste;;391.740;;;2662.0;3506003.0;10/10/2025
PetCamp;Bauru - PetCamp Bauru Aiello - Loja 089;Avenida Affonso José Aiello 150 Quadra 19;Vila Aviação;Bauru;SP;Sudeste;17018905;391.740;-22.3568604;-49.0479014;2662.0;3506003.0;10/10/2025
PetCamp;Bauru - PetCamp Bauru - Loja 076;Travessa Bom Jardim;Vila Cardia;Bauru;SP;Sudeste;17013700;391.740;-22.3247697;-49.0569445;2662.0;3506003.0;10/10/2025
PetCamp;Birigui - PetCamp Birigui - Loja 094;Rua Dona Rosa;Vila Giampietro;Birigui;SP;Sudeste;16200777;122.988;-21.2917536;-50.3488593;2662.0;3506508.0;10/10/2025
PetCamp;Boituva - PetCamp Boituva - Loja 034;Rua Quatro;Parque Novo Mundo;São Carlos;SP;Sudeste;13573508;265.294;-23.2865147;-47.6627063;2662.0;3548906.0;10/10/2025
PetCamp;Botucatu - PetCamp Botucatu - Loja 081;Rua Cruz Pereira 352;Vila dos Lavradores;Botucatu;SP;Sudeste;18609970;150.442;-22.8731576;-48.4473911;2662.0;3507506.0;10/10/2025
PetCamp;Campinas - PetCamp Barão - Loja 031;Rua Tereza Zogbi Geraij Mokarzel;Barão Geraldo;Campinas;SP;Sudeste;13084065;1.185.977;-22.8290679;-47.0785026;2662.0;3509502.0;10/10/2025
PetCamp;Campinas - PetCamp Barão Geraldo - Loja 003;Rua Francisca Resende Merciai;Barão Geraldo;Campinas;SP;Sudeste;13084195;1.185.977;-22.8282004;-47.080461;2662.0;3509502.0;10/10/2025
PetCamp;Campinas - PetCamp Barão de Itapura- Loja 102;Rua Cristóvão Colombo;Vila Rossi;Campinas;SP;Sudeste;13023230;1.185.977;-22.8897312;-47.0615485;2662.0;3509502.0;10/10/2025
PetCamp;Campinas - PetCamp Norte Sul - Loja 004;Rua Antônio Lapa;Cambuí;Campinas;SP;Sudeste;13025241;1.185.977;-22.898234;-47.0485853;2662.0;3509502.0;10/10/2025
PetCamp;Campinas - PetCamp Aquidabã - Loja 005;Rua Luzitana;Centro;Campinas;SP;Sudeste;13015120;1.185.977;-22.9102049;-47.0540527;2662.0;3509502.0;10/10/2025
PetCamp;Campinas - PetCamp Jasmim - Loja 029;Rua dos Cravos;Santa Cândida;Vinhedo;SP;Sudeste;13286394;79.235;-22.8567582;-47.0473863;2662.0;3556701.0;10/10/2025
PetCamp;Campinas - PetCamp Padre Anchieta - Loja 032;Rua Santo Agostinho;Conjunto Habitacional Padre Anchieta;Campinas;SP;Sudeste;13068313;1.185.977;-22.8625126;-47.1502045;2662.0;3509502.0;10/10/2025
PetCamp;Campinas - PetCamp Rondon - Loja 002;Rua Domingos Moro;Jardim Chapadão;Campinas;SP;Sudeste;13070026;1.185.977;-22.8936501;-47.0853145;2662.0;3509502.0;10/10/2025
PetCamp;Campinas - PetCamp Prado - Loja 028;Rua São José do Rio Pardo;Jardim Nova Europa;Campinas;SP;Sudeste;13040087;1.185.977;-22.9436609;-47.0534032;2662.0;3509502.0;10/10/2025
PetCamp;Campinas - PetCamp Jd do Lago - Loja 007;Rua das Rosas;Vila Mimosa;Campinas;SP;Sudeste;13050061;1.185.977;-22.9426665;-47.0912053;2662.0;3509502.0;10/10/2025
PetCamp;Campinas - PetCamp Enxuto - Loja 065;Avenida John Boyd Dunlop;Jardim Aurélia;Campinas;SP;Sudeste;13033000;1.185.977;-22.9094032;-47.0949068;2662.0;3509502.0;10/10/2025
PetCamp;Campinas - PetCamp Amoreiras - Loja 078;Rua Pedro Galhardi;Jardim Yeda;Campinas;SP;Sudeste;13060616;1.185.977;-22.9460781;-47.112088;2662.0;3509502.0;10/10/2025
PetCamp;Campinas - PetCamp Ciro Leite - Loja 030;Rua José de Sousa Galvão;Vila Mimosa;Campinas;SP;Sudeste;13050041;1.185.977;-22.9388444;-47.0887526;2662.0;3509502.0;10/10/2025
PetCamp;Campinas - PetCamp Taquaral - Loja 027;Praça Manoel Lousada;Jardim Bela Vista;Campinas;SP;Sudeste;13077039;1.185.977;-22.8785909;-47.0457672;2662.0;3509502.0;10/10/2025
PetCamp;Campinas - PetCamp Suaçuna - Loja 086;Rua Jurura;Vila Aeroporto;Campinas;SP;Sudeste;13054109;1.185.977;-22.9738803;-47.1279528;2662.0;3509502.0;10/10/2025
PetCamp;Campinas - PetCamp Carmona - Loja 001;Rua Doutor Gabriel Penteado;Vila João Jorge;Campinas;SP;Sudeste;13041305;1.185.977;-22.9181844;-47.0621467;2662.0;3509502.0;10/10/2025
PetCamp;Campinas - PetCamp Abolição - Loja 083;Rua Ernesto Buzzo;Vila Joaquim Inácio;Campinas;SP;Sudeste;13045670;1.185.977;-22.9290548;-47.0363309;2662.0;3509502.0;10/10/2025
PetCamp;Capivari - PetCamp Capivari - Loja 054;Rua B;Santo Antônio;Aracaju;SE;Nordeste;49061109;628.849;-22.9947262;-47.5147761;1473.0;2800308.0;10/10/2025
PetCamp;Catanduva - PetCamp Catanduva - Loja 060;Rua Avaí;Centro;Catanduva;SP;Sudeste;15800150;119.172;-21.1387401;-48.9679665;2662.0;3511102.0;10/10/2025
PetCamp;Cosmópolis - PetCamp Cosmópolis - Loja 021;Rua Campinas;Vila Fontana;Cosmópolis;SP;Sudeste;13150572;61.204;-22.6479232;-47.1894574;2662.0;3512803.0;10/10/2025
PetCamp;Franca - PetCamp Franca - Loja 068;Rua Pernambuco;Vila Aparecida;Franca;SP;Sudeste;14401322;364.331;-20.5274288;-47.3862422;2662.0;3516200.0;10/10/2025
PetCamp;Franca - PetCamp Franca BR - Loja 073;Rua Pernambuco;Vila Aparecida;Franca;SP;Sudeste;14401322;364.331;-20.5274288;-47.3862422;2662.0;3516200.0;10/10/2025
PetCamp;Guaratinguetá - PetCamp Guaratinguetá - Loja 107;Rua Rafael Mollica;Parque Residencial Beira Rio;Guaratinguetá;SP;Sudeste;12517600;121.710;-22.7957977;-45.1858327;2662.0;3518404.0;10/10/2025
PetCamp;Hortolândia - PetCamp Rosolem - Loja 026;Rua Jorgina de Souza Francisca;Jardim Viagem;Hortolândia;SP;Sudeste;13185376;247.331;-22.901188;-47.1725753;2662.0;3519071.0;10/10/2025
PetCamp;Hortolândia - PetCamp Hortolândia - Loja 025;Rua Príncipe Luis II;Residencial Jardim de Mônaco;Hortolândia;SP;Sudeste;13189278;247.331;-22.869;-47.2269485;2662.0;3519071.0;10/10/2025
PetCamp;Indaiatuba - PetCamp Itaici - Loja 020;Praça Luiz Mantoanelli;Itaici;Indaiatuba;SP;Sudeste;13340569;267.796;-23.10757;-47.182264;2662.0;3520509.0;10/10/2025
PetCamp;Indaiatuba - PetCamp Indaiatuba - Loja 022;Rua Trinta;Jardins do Império;Indaiatuba;SP;Sudeste;13348698;267.796;-23.0953528;-47.2249137;2662.0;3520509.0;10/10/2025
PetCamp;Indaiatuba - PetCamp Indaiás - Loja 063;Rua dos Indaiás;Vila Costa e Silva;Indaiatuba;SP;Sudeste;13344182;267.796;-23.1019167;-47.2121926;2662.0;3520509.0;10/10/2025
PetCamp;Itapetininga - PetCamp Itapetininga - Loja 036;Praça Sebastião Garcia;Vila Rio Branco;Itapetininga;SP;Sudeste;18208085;163.774;-23.5923525;-48.0600095;2662.0;3522307.0;10/10/2025
PetCamp;Itaquaquecetuba - PetCamp Itaquaquecetuba - Loja 082;Rua Padre João Manoel;Jardim Carolina;Itaquaquecetuba;SP;Sudeste;8588340;382.521;-234.984;-4.634.929;2662.0;3523107.0;10/10/2025
PetCamp;Itatiba - PetCamp Itatiba Centro - Loja 077;Ladeira Capitão Mello;Centro;Itatiba;SP;Sudeste;13250341;126.403;-23.0046225;-46.8387432;2662.0;3523404.0;10/10/2025
PetCamp;Itatiba - PetCamp Galetto - Loja 066;Avenida Pedro Mascagni;Jardim Galetto;Itatiba;SP;Sudeste;13253140;126.403;-23.0085768;-46.8227361;2662.0;3523404.0;10/10/2025
PetCamp;Itu - PetCamp Itu - Loja 037;Rua Argemiro da Silveira D'Elboux;Alto da Vila Nova;Itu;SP;Sudeste;13309330;174.561;-23.2794785;-47.291548;2662.0;3523909.0;10/10/2025
PetCamp;Jaboticabal - PetCamp Jaboticabal - Loja 091;Rua Santo André;Nova Jaboticabal;Jaboticabal;SP;Sudeste;14890000;73.467;-21.2665243;-48.3090216;2662.0;3524303.0;10/10/2025
PetCamp;Jacareí - PetCamp Jacareí Letras - Loja 072;Rua Abílio de Almeida;Loteamento Villa Branca;Jacareí;SP;Sudeste;12301602;249.968;-23.2656571;-45.9438124;2662.0;3524402.0;10/10/2025
PetCamp;Jaguariúna - PetCamp Jaguariúna - Loja 019;Avenida Lauro de Carvalho;Centro;Jaguariúna;SP;Sudeste;13910025;61.801;-22.7062219;-46.9904072;2662.0;3524709.0;10/10/2025
PetCamp;Jundiaí - PetCamp Engordadouro - Loja 093;Rua Ravenna;Engordadouro;Jundiaí;SP;Sudeste;13214670;460.313;-23.1542606;-46.9130549;2662.0;3525904.0;10/10/2025
PetCamp;Jundiaí - PetCamp Colônia - Loja 043;Rua Agostinho Balestrin;Núcleo Colonial Barão de Jundiaí;Jundiaí;SP;Sudeste;13219647;460.313;-23.1828807;-46.8562009;2662.0;3525904.0;10/10/2025
PetCamp;Jundiaí - PetCamp Jd Retiro - Loja 052;Praça Raphael Avallone;Parque do Colégio;Jundiaí;SP;Sudeste;13209159;460.313;-23.1872452;-46.8973936;2662.0;3525904.0;10/10/2025
PetCamp;Leme - PetCamp Leme - Loja 061;Avenida Benedito Landgraf;Centro;Leme;SP;Sudeste;13610010;101.316;-22.1892956;-47.3951413;2662.0;3526704.0;10/10/2025
PetCamp;Limeira - PetCamp Ouro Verde - Loja 067;Rua Vicente de Felice;Jardim Ouro Verde;Limeira;SP;Sudeste;13482075;300.728;-22.585415;-47.4216148;2662.0;3526902.0;10/10/2025
PetCamp;Limeira - PetCamp Limeira - Loja 009;Rua Euclides Xavier de Lima;Vila Anita;Limeira;SP;Sudeste;13484305;300.728;-22.5595046;-47.4130459;2662.0;3526902.0;10/10/2025
PetCamp;Lins - PetCamp Lins - Loja 088;Travessa Cabo Antônio Belmont;Vila Alta;Lins;SP;Sudeste;16400506;76.729;-21.6731203;-49.75788;2662.0;3527108.0;10/10/2025
PetCamp;Matão - PetCamp Matão - Loja 071;Rua São Lourenço 536;Centro;Matão;SP;Sudeste;15990971;80.998;-21.601777;-48.3554823;2662.0;3529302.0;10/10/2025
PetCamp;Mogi Guaçu - PetCamp Mogi Guaçu - Loja 010;Rua Cinéia Maria do Carmo;Parque Guainco;Mogi Guaçu;SP;Sudeste;13844290;159.735;-22.3906563;-46.9458201;2662.0;3530706.0;10/10/2025
PetCamp;Mogi Mirim - PetCamp Mogi Mirim - Loja 017;Rua da Bíblia;Santa Cruz;Mogi Mirim;SP;Sudeste;13800445;95.534;-22.4388769;-46.9649381;2662.0;3530805.0;10/10/2025
PetCamp;Mogi das Cruzes - PetCamp Mogi das Cruzes - Loja 047;Rua José Cordeiro Pereira;Vila Lavínia;Mogi das Cruzes;SP;Sudeste;8737060;468.120;-23.516.685.552.836.700;-4.618.865.963.558.200;2662.0;3530607.0;10/10/2025
PetCamp;Monte Mor - PetCamp Monte Mor - Loja 064;Viela Monte Mor;Jardim Novo Horizonte;Carapicuíba;SP;Sudeste;6341530;398.462;-22.948.296.243.245.100;-4.731.333.998.593.140;2662.0;3510609.0;10/10/2025
PetCamp;Nova Odessa - PetCamp Nova Odessa - Loja 011;Rua Hermann Janait;Jardim de Éden;Nova Odessa;SP;Sudeste;13382006;64.228;-22.7903865;-47.303484;2662.0;3533403.0;10/10/2025
PetCamp;Paulínia - PetCamp João Aranha - Loja 018;Rua Mané Garrincha;Bela Vista;Paulínia;SP;Sudeste;13145022;115.690;-22.7541208;-47.1689915;2662.0;3536505.0;10/10/2025
PetCamp;Paulínia - PetCamp Paulínia - Loja 023;Avenida José Paulino;Jardim Fortaleza;Paulínia;SP;Sudeste;13140076;115.690;-22.7714596;-47.1468183;2662.0;3536505.0;10/10/2025
PetCamp;Pindamonhangaba - PetCamp Pindamonhangaba - Loja 090;Rua Doutor José Augusto César Salgado;Jardim Residencial Doutor Lessa;Pindamonhangaba;SP;Sudeste;12422570;172.027;-22.9451119;-45.4778208;2662.0;3538006.0;10/10/2025
PetCamp;Piracicaba - PetCamp Piracicaba Independência - Loja 075;Travessa José Pereira Cardoso;Nova América;Piracicaba;SP;Sudeste;13417757;438.827;-22.7340488;-47.6382936;2662.0;3538709.0;10/10/2025
PetCamp;Piracicaba - PetCamp Piracicaba - Loja 035;Avenida Rio das Pedras;Água Branca;Piracicaba;SP;Sudeste;13425381;438.827;-22.7576951;-47.6144395;2662.0;3538709.0;10/10/2025
PetCamp;Pirassununga - PetCamp Pirassununga - Loja 033;Rua Sofia Levy;Vila Industrial;Pirassununga;SP;Sudeste;13631275;75.475;-22.0121067;-47.4251609;2662.0;3539301.0;10/10/2025
PetCamp;Ribeirão Preto - PetCamp Caramuru - Loja 046;Rua Orestes Guimarães;Alto da Boa Vista;Ribeirão Preto;SP;Sudeste;14025189;728.400;-21.1992388;-47.822767;2662.0;3543402.0;10/10/2025
PetCamp;Ribeirão Preto - PetCamp Savegnago - Loja 044;Rua Luiz Gama;Campos Elíseos;Ribeirão Preto;SP;Sudeste;14080220;728.400;-21.1626611;-47.8115557;2662.0;3543402.0;10/10/2025
PetCamp;Ribeirão Preto - PetCamp RP Nova Aliança- Loja 095;Rua José Ferreira da Costa;Jardim Nova Aliança Sul;Ribeirão Preto;SP;Sudeste;14027070;728.400;-21.2217358;-47.8277093;2662.0;3543402.0;10/10/2025
PetCamp;Ribeirão Preto - PetCamp Leão XIII - Loja 074;Rua Alfredo Benzoni;Iguatemi;Ribeirão Preto;SP;Sudeste;14091520;728.400;-21.1957179;-47.7783946;2662.0;3543402.0;10/10/2025
PetCamp;Ribeirão Preto - PetCamp Biagi - Loja 012;Rua Aquidaban;Santa Cruz do José Jacques;Ribeirão Preto;SP;Sudeste;14020689;728.400;-21.2058375;-47.794614;2662.0;3543402.0;10/10/2025
PetCamp;Rio Claro - PetCamp Rio Claro Av Brasil - 098;Avenida 50;Alto do Santana;Rio Claro;SP;Sudeste;13504182;208.857;-22.3860943;-47.5561947;2662.0;3543907.0;10/10/2025
PetCamp;Rio Claro - PetCamp Rio Claro II - Loja 087;Avenida Marginal 1 NR;Jardim Nova Rio Claro;Rio Claro;SP;Sudeste;13502390;208.857;-22.4015583;-47.5870826;2662.0;3543907.0;10/10/2025
PetCamp;Rio Claro - PetCamp Rio Claro 29 - Loja 112;Av. 29;;Rio Claro;SP;Sudeste;;208.857;;;2662.0;3543907.0;10/10/2025
PetCamp;Rio Claro - PetCamp Rio Claro - Loja 038;Avenida 2;Condomínio Club Home;Rio Claro;SP;Sudeste;13503077;208.857;-22.4111651;-47.5673347;2662.0;3543907.0;10/10/2025
PetCamp;Santa Barbara d'Oeste - PetCamp Santa Barbara d'Oeste - 099;Avenida Alfredo Contatto;Jardim Dona Regina;Santa Bárbara d'Oeste;SP;Sudeste;13455726;189.338;-22.7392478;-47.3643616;2662.0;3545803.0;10/10/2025
PetCamp;Sorocaba - PetCamp Ipanema - Loja 014;Rua Hilda Cardoso da Silva;Jardim das Flores;Sorocaba;SP;Sudeste;18071774;757.459;-23.4627284;-47.4965439;2662.0;3552205.0;10/10/2025
PetCamp;Sorocaba - PetCamp Sorocaba Atanázio - Loja 105;Rua Diógenes Cardoso Filho;Jardim São Guilherme;Sorocaba;SP;Sudeste;18074643;757.459;-23.4513575;-47.4838649;2662.0;3552205.0;10/10/2025
PetCamp;Sorocaba - PetCamp Campolim - Loja 045;Rua Heloísa Oliveira Evangelista;Parque Campolim;Sorocaba;SP;Sudeste;18048123;757.459;-23.53418;-47.4726643;2662.0;3552205.0;10/10/2025
PetCamp;Sorocaba - PetCamp Sorocaba Independência - Loja 070;Rua Euclides da Cunha;Vila Independência;Sorocaba;SP;Sudeste;18040330;757.459;-23.504757;-47.470863;2662.0;3552205.0;10/10/2025
PetCamp;Sumaré - PetCamp Sumaré Real Park - Loja 085;Rua Guengo Kobayashi;Residencial Real Parque Sumaré;Sumaré;SP;Sudeste;13178553;289.787;-22.8261957;-47.2145451;2662.0;3552403.0;10/10/2025
PetCamp;Sumaré - PetCamp Sumaré Maria Luiza- Loja 103;Rua Jose Elpidio de Oliveira;Jardim Cidade Nova (Nova Veneza);Sumaré;SP;Sudeste;13178312;289.787;-22.8001804;-47.1924128;2662.0;3552403.0;10/10/2025
PetCamp;Sumaré - PetCamp Sumaré - Loja 013;Avenida Rebouças;Centro;Sumaré;SP;Sudeste;13170023;289.787;-22.8223188;-47.2718625;2662.0;3552403.0;10/10/2025
PetCamp;Sumaré - PetCamp Santa Rosa - Loja 015;Rua Austrália;Jardim Golden Park Residence;Hortolândia;SP;Sudeste;13189116;247.331;-22.8486399947;-47.2098423159;2662.0;3519071.0;10/10/2025
PetCamp;São Carlos - PetCamp São Carlos - Loja 040;Alameda A;Condomínio Residencial Village São Carlos ll;São Carlos;SP;Sudeste;13565400;265.294;-21.9680722;-47.8923449;2662.0;3548906.0;10/10/2025
PetCamp;São José do Rio Preto - PetCamp Presidente - Loja 053;Avenida Presidente Juscelino Kubitschek de Oliveira;Jardim Moysés Miguel Haddad;São José do Rio Preto;SP;Sudeste;15093215;501.597;-20.8520672;-49.4125872;2662.0;3549805.0;10/10/2025
PetCamp;São José do Rio Preto - PetCamp Yolanda - Loja 057;Rua Waldomiro Nadotti;;São José do Rio Preto;SP;Sudeste;;501.597;-2.080.916.120.601.060;493.519.504.625.669;2662.0;3549805.0;10/10/2025
PetCamp;São José do Rio Preto - PetCamp São Miguel- Loja 110;Rua Virgílio Dias de Castro;Conjunto Habitacional São Deocleciano;São José do Rio Preto;SP;Sudeste;15057030;501.597;-20.7920741;-49.3447373;2662.0;3549805.0;10/10/2025
PetCamp;São José do Rio Preto - PetCamp Estudantes - Loja 041;Alameda Franca;Jardim Roseana;São José do Rio Preto;SP;Sudeste;15030125;501.597;-20.8079216;-49.3967835;2662.0;3549805.0;10/10/2025
PetCamp;São José do Rio Preto - PetCamp SJRP Coronel - Loja 079;Rua Redentora;Vila Redentora;São José do Rio Preto;SP;Sudeste;15015780;501.597;-20.8185094;-49.3896735;2662.0;3549805.0;10/10/2025
PetCamp;São José dos Campos - PetCamp São José dos Campos Urbanova - Loja 118;Rua Doutor Luiz Fernando Leite Chaves;Condomínio Residencial Montserrat;São José dos Campos;SP;Sudeste;12244131;724.756;-23.1881859;-45.9332164;2662.0;3549904.0;10/10/2025
PetCamp;São José dos Campos - PetCamp São José dos Campos Chaparral - Loja 119;Avenida Jorge Cury;Condomínio Residencial Monaco;São José dos Campos;SP;Sudeste;12244141;724.756;-23.2060404;-45.9061705;2662.0;3549904.0;10/10/2025
PetCamp;São José dos Campos - PetCamp São José dos Campos Valesul - Loja 122;Rua Bertioga;Jardim Satélite;São José dos Campos;SP;Sudeste;12230710;724.756;-23.2346825;-45.8826362;2662.0;3549904.0;10/10/2025
PetCamp;São José dos Campos - PetCamp São José dos Campos Aquarius - Loja 121;Rua Agenor Cursino;Altos do Esplanada;São José dos Campos;SP;Sudeste;12246012;724.756;-23.2141083;-45.9021864;2662.0;3549904.0;10/10/2025
PetCamp;São José dos Campos - PetCamp São José dos Campos - Loja 101;Rua José Felicidade da Silva;Residencial Gazzo;São José dos Campos;SP;Sudeste;12236844;724.756;-23.2618288;-45.8998582;2662.0;3549904.0;10/10/2025
PetCamp;São José dos Campos - PetCamp São José dos Campos JK - Loja 120;Rua Bem-te-vi;Condomínio Residencial Alphaville I;São José dos Campos;SP;Sudeste;12244052;724.756;-23.1836466;-45.8568141;2662.0;3549904.0;10/10/2025
PetCamp;Tatuí - PetCamp Tatuí - Loja 116;Av Coronel Firmo Vieira de Camargo;;Tatuí;SP;Sudeste;;128.560;;;2662.0;3554003.0;10/10/2025
PetCamp;Taubaté- PetCamp Taubaté Aparecida - Loja 104;Rua Antonio Pereira de Andrade;Vila Aparecida;Taubaté;SP;Sudeste;12052072;321.298;-23.0149006;-45.5653283;2662.0;3554102.0;10/10/2025
PetCamp;Taubaté - PetCamp Taubaté - Loja 050;Rua Eurico Pereira Pena;Jardim Califórnia;Taubaté;SP;Sudeste;12062170;321.298;-23.0045418;-45.5510649;2662.0;3554102.0;10/10/2025
PetCamp;Uberaba - PetCamp Uberaba Leopoldino - Loja 109;Avenida Leopoldino de Oliveira;Conjunto Frei Eugênio;Uberaba;MG;Sudeste;38081035;354.142;-19.7549795;-47.9184221;2001.0;3170107.0;10/10/2025
PetCamp;Uberaba - PetCamp 3P Uberaba - Loja 084;Rua Doutor Antônio Rodrigues Braga;Irmãos Soares;Uberaba;MG;Sudeste;38060570;354.142;-19.748722;-47.9490052;2001.0;3170107.0;10/10/2025
PetCamp;Valinhos - PetCamp Valinhos - Loja 039;Rua Antônio Negrello;Apaga Fogo;Valinhos;SP;Sudeste;13277151;131.277;-22.9907635;-47.00476;2662.0;3556206.0;10/10/2025
PetCamp;Vinhedo - PetCamp Vinhedo - Loja 008;Rua Pouso do Chico Rey;Santa Cândida;Vinhedo;SP;Sudeste;13286674;79.235;-23.0264868;-46.9818353;2662.0;3556701.0;10/10/2025
PetCamp;Votorantim - PetCamp Votorantim - Loja 042;Rua Zulmira Ramos;Jardim Paraíso;Votorantim;SP;Sudeste;18110370;132.849;-23.5380687;-47.4520136;2662.0;3557006.0;10/10/2025
petland;Petland Lins;Rua Dom Bosco;Vila Alta;Lins;SP;Sudeste;16400-505;76.729;-21.67198;-49.7574013;2662.0;3527108.0;10/10/2025
petland;Petland Vila Gumercindo;Rua Tupanaci;Vila Gumercindo;São Paulo;SP;Sudeste;04131-020;11.895.578;-23.548;-46.3742640957;2662.0;3550308.0;10/10/2025
petland;Petland Textil;Avenida Guilherme Giorgi;Vila Carrão;São Paulo;SP;Sudeste;03422-001;11.895.578;-23.7120700169;-46.8149739476;2662.0;3550308.0;10/10/2025
petland;Petland Menino Deus;Avenida Getúlio Vargas;Menino Deus;Porto Alegre;RS;Sul;90150-002;1.389.322;-30.037680009;-51.23;2608.0;4314902.0;10/10/2025
petland;Petland Arvoredo;Avenida Princesa Isabel;Parque Recreio;Contagem;MG;Sudeste;32110-000;649.975;-19.8792202;-44.0219003;2001.0;3118601.0;10/10/2025
petland;Petland Lajeado;Avenida Benjamin Constant;Centro;Lajeado;RS;Sul;95900-056;96.651;-29.462995;-51.9668399;2608.0;4311403.0;10/10/2025
petland;Petland Ipiranga;Rua Bom Pastor;Ipiranga;São Paulo;SP;Sudeste;04203-052;11.895.578;-23.2977099666;-46.9090260907;2662.0;3550308.0;10/10/2025
petland;Petland Chácara Santo Antônio;Rua Cancioneiro Popular;Santo Amaro;São Paulo;SP;Sudeste;04710-000;11.895.578;-23.548;-46.9749018514;2662.0;3550308.0;10/10/2025
petland;Petland Limeira;Rua Sete de Setembro;Centro;Limeira;SP;Sudeste;13480-150;300.728;-22.5665354;-47.3974368;2662.0;3526902.0;10/10/2025
petland;Petland Vila Mascote;Avenida Mascote;Vila Mascote;São Paulo;SP;Sudeste;04363-000;11.895.578;-23.2779999695;-46.3414734789;2662.0;3550308.0;10/10/2025
petland;Petland Tude Bastos;Avenida Irmãos Adorno;Sítio do Campo;Praia Grande;SP;Sudeste;11725-320;365.577;-23.9970893;-46.4217894;2662.0;3541000.0;10/10/2025
petland;Petland Araçatuba;Rua Sarjob Mendes;Icaray;Araçatuba;SP;Sudeste;16020-360;207.775;-21.2236144;-50.4497105;2662.0;3502804.0;10/10/2025
petland;Petland Grageru;Avenida Ministro Geraldo Barreto Sobral;Grageru;Aracaju;SE;Nordeste;49027-255;628.849;-10.9451838;-37.0624862;1473.0;2800308.0;10/10/2025
petland;Petland Aliança;Rua Bom Pastor;Ipiranga;São Paulo;SP;Sudeste;04203-052;11.895.578;-23.2977099666;-46.9090260907;2662.0;3550308.0;10/10/2025
petland;Petland Outlet Premium Imigrantes;Estrada da Cama Patente;Alvarenga;São Bernardo do Campo;SP;Sudeste;09842-100;840.499;-23.694;-46.5388561919;2662.0;3548708.0;10/10/2025
petland;Petland Vila A;Avenida Engenheiro Hildemar Leite França;Vila Residencial A;Foz do Iguaçu;PR;Sul;85860-320;295.500;-25.5384599903;-54.577426122;2482.0;4108304.0;10/10/2025
petland;Petland Tapejara;;;Tapejara;RS;Sul;99950-000;25.201;-28.0678199995;-52.014;2608.0;4320909.0;10/10/2025
petland;Petland São Mateus;Avenida Presidente Itamar Franco;São Mateus;Juiz de Fora;MG;Sudeste;36016-321;565.764;-21.768205;-43.3501397;2001.0;3136702.0;10/10/2025
petland;Petland Rio Branco;Avenida Doutor Ulysses Guimarães;Vila Nogueira;Diadema;SP;Sudeste;09990-080;404.118;-23.6715999944;-46.6072753633;2662.0;3513801.0;10/10/2025
petland;Petland Parque São Lucas;Rua Francisco Fett;Vila Paulo Silas;São Paulo;SP;Sudeste;03264-000;11.895.578;-23.6929900171;-46.636;2662.0;3550308.0;10/10/2025
petland;Petland Novo Eldorado;Avenida Doutor Cincinato Cajado Braga;Novo Eldorado;Contagem;MG;Sudeste;32341-310;649.975;-19.9350502;-44.0526866;2001.0;3118601.0;10/10/2025
petland;Petland Mexicão;Avenida Capitão-mor Aguiar;Centro;São Vicente;SP;Sudeste;11310-201;338.407;-23.9671961;-46.3915641;2662.0;3551009.0;10/10/2025
petland;Petland Marco Belém;Avenida Rômulo Maiorana;Marco;Belém;PA;Norte;66093-672;1.398.531;-1.4414112;-48.4655217;1344.0;1501402.0;10/10/2025
petland;Petland Jardim das Flores;Rua Osório Duque Estrada;Pestana;Osasco;SP;Sudeste;06122-000;756.952;-23.5401596;-46.7977195;2662.0;3534401.0;10/10/2025
petland;Petland Horto Florestal;Rua Izidro Roque da Silva Telo;Horto Florestal;Sorocaba;SP;Sudeste;18074-745;757.459;-23.5015299;-47.4525603;2662.0;3552205.0;10/10/2025
petland;Petland Parque dos Anjos;Avenida Antônio Gomes Correa;Parque dos Anjos;Gravataí;RS;Sul;94190-300;275.294;-29.9277099901;-50.9732005163;2608.0;4309209.0;10/10/2025
petland;Petland Mongaguá;;;Mongaguá;SP;Sudeste;11730-000;64.519;-24.1075246;-46.6801919;2662.0;3531100.0;10/10/2025
petland;Petland Campo Bom;;;Campo Bom;RS;Sul;93700-000;64.704;-29.6788945671;-51.0618405609;2608.0;4303905.0;10/10/2025
petland;Petland Brasílio Mall;Rua Brasílio Machado;Centro;São Bernardo do Campo;SP;Sudeste;09715-140;840.499;-23.700210005;-46.565;2662.0;3548708.0;10/10/2025
petland;Petland Bom Fim;Praça da Alfândega;Centro Histórico;Porto Alegre;RS;Sul;90010-150;1.389.322;-30.0327299961;-51.23;2608.0;4314902.0;10/10/2025
petland;Petland Avenida T1;Avenida T 1;Setor Bueno;Goiânia;GO;Centro-Oeste;74210-025;1.494.599;-16.7004399;-49.276539;2098.0;5208707.0;10/10/2025
petland;Petland Enseada;Avenida Dom Pedro I;Enseada;Guarujá;SP;Sudeste;11440-000;294.973;-23.9948444;-46.2568678;2662.0;3518701.0;10/10/2025
petland;Petland Vinhais;Rua do Arame;Vinhais;São Luís;MA;Nordeste;65074-380;1.088.057;-2.5104119;-44.2504104;1077.0;2111300.0;10/10/2025
petland;Petland Vila São Francisco;Avenida Martin Luther King;Cidade São Francisco;São Paulo;SP;Sudeste;05352-020;11.895.578;-23.9428300407;-46.2053040548;2662.0;3550308.0;10/10/2025
petland;Petland Vila Mirim;Rua Primeiro de Maio;Mirim;Praia Grande;SP;Sudeste;11704-710;365.577;-24.0285831;-46.4881622;2662.0;3541000.0;10/10/2025
petland;Petland Vila Madalena;Rua Natingui;Vila Madalena;São Paulo;SP;Sudeste;05443-001;11.895.578;-23.9543500441;-46.1927375876;2662.0;3550308.0;10/10/2025
petland;Petland Presidente Prudente;Rua Álvares Machado;Vila Euclides;Presidente Prudente;SP;Sudeste;19015-450;234.083;-22.1270737;-51.4009725;2662.0;3541406.0;10/10/2025
petland;Petland Varginha;Avenida Francisco Navarra;Centro;Varginha;MG;Sudeste;37006-003;142.802;-21.5560669;-45.4368543;2001.0;3170701.0;10/10/2025
petland;Petland Unaí;Rua Eli Pinto de Carvalho;Cruzeiro;Unaí;MG;Sudeste;38616-010;90.724;-16.3661499;-46.899058;2001.0;3170404.0;10/10/2025
petland;Petland Tirol;Avenida Hermes da Fonseca;Tirol;Natal;RN;Nordeste;59020-315;785.368;-5.8034577;-35.2011079;1616.0;2408102.0;10/10/2025
petland;Petland São Caetano do Sul;Rua Rafael Correa Sampaio;Santa Paula;São Caetano do Sul;SP;Sudeste;09541-250;172.109;-23.6257900073;-46.551;2662.0;3548807.0;10/10/2025
petland;Petland Santos Dumont;;;Santos Dumont;MG;Sudeste;36240-000;43.392;-21.4662142;-43.5500883;2001.0;3160702.0;10/10/2025
petland;Petland Santo Antônio;Rua das Magnólias;Jardim Primavera;Guarujá;SP;Sudeste;11432-320;294.973;-23.9874056;-46.2717048;2662.0;3518701.0;10/10/2025
petland;Petland Saboo;Rua Flaminio Levy;Saboó;Santos;SP;Sudeste;11085-080;429.567;-23.9331245;-46.3488019;2662.0;3548500.0;10/10/2025
petland;Petland Presidente Venceslau;;;Presidente Venceslau;SP;Sudeste;19400-000;35.902;-21.8737026;-51.8452266;2662.0;3541505.0;10/10/2025
petland;Petland Presidente Vargas;;;Presidente Venceslau;SP;Sudeste;19400-000;35.902;-21.8737026;-51.8452266;2662.0;3541505.0;10/10/2025
petland;Petland Petrópolis;Avenida Protásio Alves;Petrópolis;Porto Alegre;RS;Sul;90410-003;1.389.322;-30.0231899978;-51.2186686153;2608.0;4314902.0;10/10/2025
petland;Petland Ilhabela;;;Ilhabela;SP;Sudeste;11630-000;36.329;-23.8158392;-45.3664809;2662.0;3520400.0;10/10/2025
petland;Petland Perdizes;Rua Apinajés;Perdizes;São Paulo;SP;Sudeste;05017-000;11.895.578;-23.5394736427;-46.6817360327;2662.0;3550308.0;10/10/2025
petland;Petland Península;Avenida São Marcos;São Marcos;São Luís;MA;Nordeste;65077-310;1.088.057;-2.4882276;-44.2982047;1077.0;2111300.0;10/10/2025
petland;Petland Pedro Marques;Rua Pedro Marques;Centro;Itapetininga;SP;Sudeste;18200-270;163.774;-23.589346;-48.0445597;2662.0;3522307.0;10/10/2025
petland;Petland Santana Pedro Doll;Rua Pedro Doll;Santana;São Paulo;SP;Sudeste;02404-000;11.895.578;-23.4764499904;-46.5579504702;2662.0;3550308.0;10/10/2025
petland;Petland Paulista;Rua Bela Cintra;Consolação;São Paulo;SP;Sudeste;01415-001;11.895.578;-23.5524085573;-46.655224424;2662.0;3550308.0;10/10/2025
petland;Petland Parque das Américas;Rua Bolívia;Parque das Américas;Mauá;SP;Sudeste;09350-636;429.380;-23.6604399964;-46.4527457021;2662.0;3529401.0;10/10/2025
petland;Petland Papini;Rua Cambuci do Vale;Cidade Dutra;São Paulo;SP;Sudeste;04805-110;11.895.578;-23.8699300338;-46.2848262141;2662.0;3550308.0;10/10/2025
petland;Petland Nicomedes;Avenida Nicomedes Alves dos Santos;Morada da Colina;Uberlândia;MG;Sudeste;38411-106;754.954;-18.9631213;-48.2736062;2001.0;3170206.0;10/10/2025
petland;Petland Nebraska;Rua Nebraska;Brooklin Novo;São Paulo;SP;Sudeste;04560-010;11.895.578;-23.6124075642;-46.6789609418;2662.0;3550308.0;10/10/2025
petland;Petland Matozinhos;Avenida Tomé Portes Del Rei;Vila Santo Antônio (Matozinhos);São João del Rei;MG;Sudeste;36305-058;94.062;-21.1256939;-44.2372126;2001.0;3162500.0;10/10/2025
petland;Petland Pinheiros – Mateus Grou;Rua Mateus Grou;Pinheiros;São Paulo;SP;Sudeste;05415-050;11.895.578;-23.9510200413;-46.636;2662.0;3550308.0;10/10/2025
petland;Petland José Menino;Rua Rei Jorge VI;José Menino;Santos;SP;Sudeste;11065-310;429.567;-23.967423;-46.3560768;2662.0;3548500.0;10/10/2025
petland;Petland Jasmim;Rua Jasmim;Chácara Primavera;Campinas;SP;Sudeste;13087-460;1.185.977;-22.8554178;-47.0486638;2662.0;3509502.0;10/10/2025
petland;Petland Jardim dos Colibris;Avenida Josué Ferreira da Silva;Jardim dos Colibris;Indaiatuba;SP;Sudeste;13349-125;267.796;-23.119243;-47.2547852;2662.0;3520509.0;10/10/2025
petland;Petland Janga;Avenida Doutor Cláudio José Gueiros Leite;Janga;Paulista;PE;Nordeste;53437-000;362.960;-7.9393032;-34.8249069;1453.0;2610707.0;10/10/2025
petland;Petland Jaguaribe;Avenida Flora;Bussocaba;Osasco;SP;Sudeste;06053-130;756.952;-23.533;-46.7984788456;2662.0;3534401.0;10/10/2025
petland;Petland Jaboticabeiras;Praça Marta de Miranda de El Rei;Padre Cursino;Taubaté;SP;Sudeste;12030-760;321.298;-23.0204559;-45.5563555;2662.0;3554102.0;10/10/2025
petland;Petland Independência;Avenida Independência;Independência;Taubaté;SP;Sudeste;12031-000;321.298;-23.0395693;-45.5688392;2662.0;3554102.0;10/10/2025
petland;Petland Higienópolis;Praça Vilaboim;Higienópolis;São Paulo;SP;Sudeste;01241-010;11.895.578;-23.5565500015;-46.6453266737;2662.0;3550308.0;10/10/2025
petland;Petland Guaianazes Otelo;Rua Otelo Augusto Ribeiro;Guaianazes;São Paulo;SP;Sudeste;08412-000;11.895.578;-23.0261799449;-47.2052215857;2662.0;3550308.0;10/10/2025
petland;Petland Jaú;Rua General Isidoro;Chácara Braz Miraglia;Jaú;SP;Sudeste;17207-270;137.323;-22.2899353;-48.553312;2662.0;3525300.0;10/10/2025
petland;Petland Garcia;Avenida Jorge Amado;Jardins;Aracaju;SE;Nordeste;49025-330;628.849;-10.9387749;-37.0531148;1473.0;2800308.0;10/10/2025
petland;Petland Formiga;Avenida Doutor Henrique Braga;Centro;Formiga;MG;Sudeste;35570-030;70.668;-20.4628628;-45.4325227;2001.0;3126109.0;10/10/2025
petland;Petland Santa Rosa;Avenida Expedicionário Weber;Central;Santa Rosa;RS;Sul;98787-000;79.395;-27.8616407;-54.454857;2608.0;4317202.0;10/10/2025
petland;Petland Dom Nery;Rua Dom Nery;Vila Embaré;Valinhos;SP;Sudeste;13271-170;131.277;-22.9684707;-47.0011055;2662.0;3556206.0;10/10/2025
petland;Petland Dom Joaquim;Avenida Dom Joaquim;Centro;Pelotas;RS;Sul;96020-260;336.131;-31.7450526;-52.336725;2608.0;4314407.0;10/10/2025
petland;Petland Dom Bosco;Avenida Brigadeiro Eduardo Gomes;Dom Bosco;Belo Horizonte;MG;Sudeste;30850-222;2.416.339;-19.9154186;-44.0008902;2001.0;3106200.0;10/10/2025
petland;Petland Cupecê;Avenida Cupecê;Jardim Prudência;São Paulo;SP;Sudeste;04365-000;11.895.578;-23.2778199652;-46.636;2662.0;3550308.0;10/10/2025
petland;Petland Cidade Nova;Rua Armando Salles de Oliveira;Vila Todos os Santos;Indaiatuba;SP;Sudeste;13330-585;267.796;-23.079944;-47.2172921;2662.0;3520509.0;10/10/2025
petland;Petland Bento Gonçalves;Rua Olavo Bilac;Cidade Alta;Bento Gonçalves;RS;Sul;95700-362;127.775;-29.1719814;-51.5161829;2608.0;4302105.0;10/10/2025
petland;Petland Canal 3;Avenida Washington Luís;Gonzaga;Santos;SP;Sudeste;11055-000;429.567;-23.9673822;-46.3328146;2662.0;3548500.0;10/10/2025
petland;Petland Campo Belo;Rua Conde de Porto Alegre;Campo Belo;São Paulo;SP;Sudeste;04608-002;11.895.578;-23.2493799671;-46.636;2662.0;3550308.0;10/10/2025
petland;Petland Cambuí;Rua dos Bandeirantes;Cambuí;Campinas;SP;Sudeste;13024-010;1.185.977;-22.8921264;-47.0546529;2662.0;3509502.0;10/10/2025
petland;Petland Botucatu;Avenida Doutor Vital Brasil;Vila São Lúcio;Botucatu;SP;Sudeste;18603-193;150.442;-22.8841808;-48.4441654;2662.0;3507506.0;10/10/2025
petland;Petland Bom Retiro;Rua Olga Assunção;Novo Horizonte;Betim;MG;Sudeste;32606-016;429.236;-19.9444194;-44.204051;2001.0;3106705.0;10/10/2025
petland;Petland Benjamin Constant;Avenida Benjamin Constant;Floresta;Porto Alegre;RS;Sul;90550-005;1.389.322;-30.0463200085;-51.23;2608.0;4314902.0;10/10/2025
petland;Petland 13 de Julho;;;Aracaju;SE;Nordeste;49025-630;628.849;;;1473.0;2800308.0;10/10/2025
petland;Petland Batatais;;;Batatais;SP;Sudeste;14300-000;59.873;;;2662.0;3505906.0;10/10/2025
petland;Petland Barra Muriaé;Rua Gil Moreira;Barra;Muriaé;MG;Sudeste;36884-112;108.161;-21.1278887;-42.3824038;2001.0;3143906.0;10/10/2025
petland;Petland Avenida Brasil;Avenida Brasil;Vila Itapura;Campinas;SP;Sudeste;13023-075;1.185.977;-22.8990196;-47.0585262;2662.0;3509502.0;10/10/2025
petland;Petland Araguaína;Rua Vinte e Cinco de Dezembro;Setor Central;Araguaína;TO;Norte;77804-030;181.493;-7.1901421;-48.2082624;1737.0;1702109.0;10/10/2025
petland;Petland Anália Franco;Rua Professor João de Oliveira Torres;Jardim Anália Franco;São Paulo;SP;Sudeste;03337-010;11.895.578;-23.3940999774;-46.636;2662.0;3550308.0;10/10/2025
petland;Petland Aclimação;Avenida da Aclimação;Aclimação;São Paulo;SP;Sudeste;01531-000;11.895.578;-23.5693300084;-46.6592676017;2662.0;3550308.0;10/10/2025
petland;Petland 5 de novembro;Avenida 5 de Novembro;Vila Nastri;Itapetininga;SP;Sudeste;18207-320;163.774;-23.6014345;-48.0617431;2662.0;3522307.0;10/10/2025
petland;Petland Vila Mariana;Avenida Conselheiro Rodrigues Alves;Vila Mariana;São Paulo;SP;Sudeste;04014-011;11.895.578;-23.548;-46.3884013667;2662.0;3550308.0;10/10/2025
petland;Petland Vila Clementino;Rua Luís Góis;Mirandópolis;São Paulo;SP;Sudeste;04043-350;11.895.578;-23.548;-46.3847688792;2662.0;3550308.0;10/10/2025
petland;Petland Turu;Avenida São Luís Rei de França;Turu;São Luís;MA;Nordeste;65065-470;1.088.057;-2.5607800101;-44.303;1077.0;2111300.0;10/10/2025
petland;Petland Tatuapé;Rua Azevedo Soares;Vila Gomes Cardim;São Paulo;SP;Sudeste;03322-002;11.895.578;-23.3955399838;-46.636;2662.0;3550308.0;10/10/2025
petland;Petland Sinop;Avenida das Itaúbas;Setor Comercial;Sinop;MT;Centro-Oeste;78550-196;216.029;-11.8543759;-55.5107714;2276.0;5107909.0;10/10/2025
petland;Petland Rudge Ramos;Avenida Caminho do Mar;Rudge Ramos;São Bernardo do Campo;SP;Sudeste;09609-000;840.499;-23.694540002;-46.565;2662.0;3548708.0;10/10/2025
petland;Petland Rio Madeira;Avenida Prefeito Chiquilito Erse;Embratel;Porto Velho;RO;Norte;76820-763;514.873;-8.7493383;-63.8847376;1717.0;1100205.0;10/10/2025
petland;Petland Renascença;Avenida Jornalista Miércio Jorge;Jardim Renascença;São Luís;MA;Nordeste;65075-675;1.088.057;-2.4986283;-44.2879209;1077.0;2111300.0;10/10/2025
petland;Petland Canal 6;Avenida Doutor Epitácio Pessoa;Boqueirão;Santos;SP;Sudeste;11045-301;429.567;-23.9648026;-46.3235849;2662.0;3548500.0;10/10/2025
petland;Petland Pompéia;Rua Euclides da Cunha;Pompéia;Santos;SP;Sudeste;11065-101;429.567;-23.9665048;-46.3421313;2662.0;3548500.0;10/10/2025
petland;Petland Pedreira;;;Pedreira;SP;Sudeste;13920-000;44.332;-22.7418249;-46.8952876;2662.0;3537107.0;10/10/2025
petland;Petland Passos;Praça Geraldo da Silva Maia;Centro;Passos;MG;Sudeste;37900-096;116.530;-20.7222202;-46.6090216;2001.0;3147907.0;10/10/2025
petland;Petland Parque Pinheiros;Rua Doutor Mário Augusto Pereira;Jardim São Paulo;Taboão da Serra;SP;Sudeste;06767-330;284.274;-23.602;-46.7469106099;2662.0;3552809.0;10/10/2025
petland;Petland Oficinas;;;Ponta Grossa;PR;Sul;84045-959;372.562;;;2482.0;4119905.0;10/10/2025
petland;Petland Mooca;Avenida Paes de Barros;Mooca;São Paulo;SP;Sudeste;03114-000;11.895.578;-23.6774200144;-46.636;2662.0;3550308.0;10/10/2025
petland;Petland Moema Pássaros;Avenida Pavão;Indianópolis;São Paulo;SP;Sudeste;04516-012;11.895.578;-23.8375300332;-46.9518306068;2662.0;3550308.0;10/10/2025
petland;Petland Moema Índios;Alameda dos Nhambiquaras;Indianópolis;São Paulo;SP;Sudeste;04090-011;11.895.578;-23.783080026;-46.3795655761;2662.0;3550308.0;10/10/2025
petland;Petland Marapé;Rua Godofredo Fraga;Marapé;Santos;SP;Sudeste;11070-400;429.567;-23.9556817;-46.3468306;2662.0;3548500.0;10/10/2025
petland;Petland Praia Grande Mallet;Avenida Marechal Mallet;Canto do Forte;Praia Grande;SP;Sudeste;11700-405;365.577;-24.0070324;-46.4067837;2662.0;3541000.0;10/10/2025
petland;Petland Mackenzie Mall;Avenida Tucunaré;Tamboré;Barueri;SP;Sudeste;06460-020;330.339;-23.5225200027;-46.8885629334;2662.0;3505708.0;10/10/2025
petland;Petland Jóquei Clube;Avenida Jóquei Clube;Jóquei;Teresina;PI;Nordeste;64049-240;902.644;-5.0745246;-42.784648;1350.0;2211001.0;10/10/2025
petland;Petland João Fiúsa;Avenida Professor João Fiúsa;Jardim Botânico;Ribeirão Preto;SP;Sudeste;14024-250;728.400;-21.1704008;-47.8103238;2662.0;3543402.0;10/10/2025
petland;Petland Jardins;Rua Bela Cintra;Consolação;São Paulo;SP;Sudeste;01415-001;11.895.578;-23.5524085573;-46.655224424;2662.0;3550308.0;10/10/2025
petland;Petland Jaguaríuna;Avenida Antonio Pinto Catão;Loteamento Capotuna;Jaguariúna;SP;Sudeste;13912-180;61.801;-22.6928981;-46.9804537;2662.0;3524709.0;10/10/2025
petland;Petland Itararé;Avenida Presidente Wilson;Itararé;São Vicente;SP;Sudeste;11320-001;338.407;-23.9682565;-46.3762476;2662.0;3551009.0;10/10/2025
petland;Petland Homero;Avenida Homero Castelo Branco;Planalto;Teresina;PI;Nordeste;64050-010;902.644;-5.056108;-42.7826894;1350.0;2211001.0;10/10/2025
petland;Petland Guilhermina;Avenida Presidente Kennedy;Guilhermina;Praia Grande;SP;Sudeste;11702-205;365.577;-24.0072448;-46.4298225;2662.0;3541000.0;10/10/2025
petland;Petland Graça;Rua da Graça;Graça;Salvador;BA;Nordeste;40150-055;2.568.928;-12.997443;-38.5255692;1366.0;2927408.0;10/10/2025
petland;Petland Embaré;Avenida Doutor Epitácio Pessoa;Boqueirão;Santos;SP;Sudeste;11045-300;429.567;-23.9648026;-46.3235849;2662.0;3548500.0;10/10/2025
petland;Petland Canal 2;Avenida Doutor Bernardino de Campos;Campo Grande;Santos;SP;Sudeste;11065-003;429.567;-23.9582251;-46.3379206;2662.0;3548500.0;10/10/2025
petland;Petland Canal 1;Avenida Senador Pinheiro Machado;Marapé;Santos;SP;Sudeste;11075-001;429.567;-23.9556817;-46.3468306;2662.0;3548500.0;10/10/2025
petland;Petland Campolim;Avenida Antônio Carlos Comitre;Parque Campolim;Sorocaba;SP;Sudeste;18047-620;757.459;-23.5226839;-47.4649254;2662.0;3552205.0;10/10/2025
petland;Petland Boqueirão;Rua Bento de Abreu;Boqueirão;Santos;SP;Sudeste;11045-140;429.567;-23.966871;-46.32075;2662.0;3548500.0;10/10/2025
petland;Petland Batel;Rua Comendador Araújo;Centro;Curitiba;PR;Sul;80420-000;1.829.225;-25.4202599958;-49.273;2482.0;4106902.0;10/10/2025
petland;Petland Aparecida;Rua Alexandre Martins;Aparecida;Santos;SP;Sudeste;11025-201;429.567;-23.9735381;-46.3055176;2662.0;3548500.0;10/10/2025
petland;Petland Alphaville;Avenida Yojiro Takaoka;Alphaville;Santana de Parnaíba;SP;Sudeste;06541-038;162.341;-23.444;-46.9311451441;2662.0;3547304.0;10/10/2025
petland;Petland Holandeses;Avenida dos Holandeses;Calhau;São Luís;MA;Nordeste;65071-380;1.088.057;-2.4935147;-44.2786188;1077.0;2111300.0;10/10/2025
petland;Petland Cohatrac;Rua Doze;Cohatrac II;São Luís;MA;Nordeste;65053-820;1.088.057;-2.5382728;-44.2072109;1077.0;2111300.0;10/10/2025
petland;Petland Cohama;Avenida Atlântica;Olho D'Água;São Luís;MA;Nordeste;65067-430;1.088.057;-2.4810648;-44.2364591;1077.0;2111300.0;10/10/2025
petland;Petland Belvedere;Avenida Luíz Paulo Franco;Belvedere;Belo Horizonte;MG;Sudeste;30320-570;2.416.339;-19.9744935;-43.9416242;2001.0;3106200.0;10/10/2025
petlove;Loja Braz Leme;Rua Frei Machado;Jardim São Bento;São Paulo;SP;Sudeste;02525-050;11.895.578;-23.6300800092;-46.7255360624;2662.0;3550308.0;10/10/2025
petlove;Loja Campo Belo;Rua Pascal;Campo Belo;São Paulo;SP;Sudeste;04616-001;11.895.578;-23.548;-46.9628262667;2662.0;3550308.0;10/10/2025
petlove;Loja Cidade Jardim;Avenida Cidade Jardim;Jardim São Braz;São Paulo;SP;Sudeste;16202-055;11.895.578;-21.2872228;-50.322166;2662.0;3550308.0;10/10/2025
petlove;Loja Moema;Avenida Juriti;Vila Uberabinha;São Paulo;SP;Sudeste;04520-000;11.895.578;-23.8378900329;-46.636;2662.0;3550308.0;10/10/2025
petlove;Loja Oscar Freire;Rua Oscar Freire;Cerqueira César;São Paulo;SP;Sudeste;01426-000;11.895.578;-23.5640200086;-46.6534752477;2662.0;3550308.0;10/10/2025
petlove;Loja Perdizes;Rua Ministro Godói;Perdizes;São Paulo;SP;Sudeste;05015-000;11.895.578;-23.1844899627;-46.2394691311;2662.0;3550308.0;10/10/2025
petlove;Loja Petlove Ponta da Praia;Avenida Dino Bueno;Ponta da Praia;Santos;SP;Sudeste;11030-350;429.567;-23.9844523;-46.3018155;2662.0;3548500.0;10/10/2025
petlove;Loja Portugal;Avenida Portugal;Centro;Santo André;SP;Sudeste;09040-011;778.711;-23.6621999978;-46.5399652504;2662.0;3547809.0;10/10/2025
petlove;Loja Ribeirão Preto;Avenida Doutor Ângelo Gennaro Gallo;Jardim Nova Aliança Sul;Ribeirão Preto;SP;Sudeste;14027-000;728.400;-21.2165004;-47.8241364;2662.0;3543402.0;10/10/2025
petlove;Loja Santos;Avenida Washington Luís;Gonzaga;Santos;SP;Sudeste;11055-000;429.567;-23.9673822;-46.3328146;2662.0;3548500.0;10/10/2025
petlove;Loja Sócrates;Rua Sócrates;Vila Sofia;São Paulo;SP;Sudeste;04671-072;11.895.578;-23.8543600323;-46.636;2662.0;3550308.0;10/10/2025
petlove;Loja Tatuapé;Rua Airi;Vila Gomes Cardim;São Paulo;SP;Sudeste;03310-010;11.895.578;-23.3970699802;-46.8006403283;2662.0;3550308.0;10/10/2025
petlove;Loja Tutóia;Rua Tutóia;Vila Mariana;São Paulo;SP;Sudeste;04007-001;11.895.578;-23.3221899712;-46.636;2662.0;3550308.0;10/10/2025
petlove;Quiosque Veros Hospital Veterinário;Avenida Brigadeiro Luís Antônio;Jardim Paulista;São Paulo;SP;Sudeste;01401-002;11.895.578;-23.548;-46.6513153845;2662.0;3550308.0;10/10/2025
petz;Petz Abelardo Bueno;Avenida Embaixador Abelardo Bueno;Barra da Tijuca;Rio de Janeiro;RJ;Sudeste;22775-040;6.729.894;-22.9727518094;-43.3884886319;2490.0;3304557.0;10/10/2025
petz;Petz Aclimação;Rua Muniz de Sousa;Aclimação;São Paulo;SP;Sudeste;01534-000;11.895.578;-23.5696900041;-46.636;2662.0;3550308.0;10/10/2025
petz;Petz Afonso Pena;Avenida Bandeirantes;Amambaí;Campo Grande;MS;Centro-Oeste;79005-671;954.537;-20.4697105;-54.6201211;2169.0;5002704.0;10/10/2025
petz;Petz Agamenon;Avenida Governador Agamenon Magalhães;Boa Vista;Recife;PE;Nordeste;50050-290;1.587.707;-8.0559795;-34.8953473;1453.0;2611606.0;10/10/2025
petz;Petz Águas Claras;Avenida Sibipiruna;Sul (Águas Claras);Brasília;DF;Centro-Oeste;71928-720;2.982.818;-15.885750017;-48.0398915003;3444.0;5300108.0;10/10/2025
petz;Petz Alameda Santos;Alameda Santos;Cerqueira César;São Paulo;SP;Sudeste;01419-001;11.895.578;-23.5326099937;-46.636;2662.0;3550308.0;10/10/2025
petz;Petz Aldeota;Avenida Barão de Studart;Aldeota;Fortaleza;CE;Nordeste;60120-001;2.574.412;-3.7357094;-38.5069693;1225.0;2304400.0;10/10/2025
petz;Petz Alphaville;Avenida Alphaville;Dezoito do Forte Empresarial/Alphaville.;Barueri;SP;Sudeste;06472-010;330.339;-23.5243200024;-46.8905258909;2662.0;3505708.0;10/10/2025
petz;Petz Alto da Boa Vista;Avenida Adolfo Pinheiro;Santo Amaro;São Paulo;SP;Sudeste;04734-004;11.895.578;-23.8617400321;-46.2937601861;2662.0;3550308.0;10/10/2025
petz;Petz Americana;Avenida Paulista;Vila Nossa Senhora de Fátima;Americana;SP;Sudeste;13478-580;246.655;-22.7376643;-47.3178178;2662.0;3501608.0;10/10/2025
petz;Petz Ana Costa;Avenida Ana Costa;Gonzaga;Santos;SP;Sudeste;11060-001;429.567;-23.954249995;-46.334;2662.0;3548500.0;10/10/2025
petz;Petz Anália Franco;Avenida Regente Feijó;Vila Regente Feijó;São Paulo;SP;Sudeste;03342-000;11.895.578;-23.7020800204;-46.8040764713;2662.0;3550308.0;10/10/2025
petz;Petz Angélica;Avenida Angélica;Consolação;São Paulo;SP;Sudeste;01227-200;11.895.578;-23.5556500053;-46.636;2662.0;3550308.0;10/10/2025
petz;Petz Anhaia Mello;Avenida Professor Luiz Ignácio Anhaia Mello;Vila Graciosa;São Paulo;SP;Sudeste;03295-000;11.895.578;-23.6981200203;-46.4722432506;2662.0;3550308.0;10/10/2025
petz;Petz Aracaju;Avenida Ministro Geraldo Barreto Sobral 215;Jardins;Aracaju;SE;Nordeste;49026-900;628.849;-10.9438929;-37.0593452;1473.0;2800308.0;10/10/2025
petz;Petz Araçatuba;Avenida Brasília;Jardim Nova Yorque;Araçatuba;SP;Sudeste;16018-000;207.775;-21.2028539;-50.4536793;2662.0;3502804.0;10/10/2025
petz;Petz Araraquara;Avenida Padre Francisco Sales Colturato;Centro;Araraquara;SP;Sudeste;14802-000;252.318;-21.7848272;-48.1786486;2662.0;3503208.0;10/10/2025
petz;Petz Arujá;Rua Tomi Saburo Yamamoto;Jardim das Cerejeiras;Arujá;SP;Sudeste;07432-575;89.943;-23.3950099976;-46.3220786898;2662.0;3503901.0;10/10/2025
petz;Petz Assaí Anchieta;Rua Garcia Lorca;Paulicéia;São Bernardo do Campo;SP;Sudeste;09695-000;840.499;-23.6995800017;-46.5710936695;2662.0;3548708.0;10/10/2025
petz;Petz Assaí Colinas;Avenida Jorge Zarur;Vila Ema;São José dos Campos;SP;Sudeste;12243-081;724.756;-23.2102831;-45.8969547;2662.0;3549904.0;10/10/2025
petz;Petz Assaí Maracanã;Rua José Higino;Tijuca;Rio de Janeiro;RJ;Sudeste;20520-201;6.729.894;-22.9325728;-43.2410248;2490.0;3304557.0;10/10/2025
petz;Petz Assaí Penha;Avenida São Miguel;Vila Marieta;São Paulo;SP;Sudeste;03620-000;11.895.578;-23.3633199789;-46.8374561407;2662.0;3550308.0;10/10/2025
petz;Petz Assis Chateaubriand;Avenida Assis Chateaubriand;Setor Oeste;Goiânia;GO;Centro-Oeste;74130-015;1.494.599;-16.6848554;-49.2714702;2098.0;5208707.0;10/10/2025
petz;Petz Augusta;Rua Augusta;Consolação;São Paulo;SP;Sudeste;01305-000;11.895.578;-23.5367499961;-46.636;2662.0;3550308.0;10/10/2025
petz;Petz Avenida das Américas Recreio;Rua César Lattes;Barra da Tijuca;Rio de Janeiro;RJ;Sudeste;22793-329;6.729.894;-23.0023912;-43.4245654;2490.0;3304557.0;10/10/2025
petz;Petz Avenida do Contorno;Avenida do Contorno;Santa Efigênia;Belo Horizonte;MG;Sudeste;30110-017;2.416.339;-19.9139617;-43.9323353;2001.0;3106200.0;10/10/2025
petz;Petz Avenida Dos Estados;Avenida dos Estados;Tamanduateí 8;Santo André;SP;Sudeste;09270-270;778.711;-23.694960006;-46.5041977288;2662.0;3547809.0;10/10/2025
petz;Petz Avenida Goiás;Avenida Goiás;Santo Antônio;São Caetano do Sul;SP;Sudeste;09521-310;172.109;-23.623;-46.5496247537;2662.0;3548807.0;10/10/2025
petz;Petz Avenida Interlagos;Avenida Interlagos;Jardim Marajoara;São Paulo;SP;Sudeste;04660-002;11.895.578;-23.8534600338;-46.3027923299;2662.0;3550308.0;10/10/2025
petz;Petz Avenida Milão;Avenida Milão;Jardim Europa;Goiânia;GO;Centro-Oeste;74325-030;1.494.599;-16.7092282;-49.313446;2098.0;5208707.0;10/10/2025
petz;Petz Balneário Camboriú;Avenida do Estado Dalmo Vieira;Estados;Balneário Camboriú;SC;Sul;88339-060;148.758;-26.9737199957;-48.635;2601.0;4202008.0;10/10/2025
petz;Petz Bandeirantes;Avenida dos Bandeirantes 2040;Vila Olímpia;São Paulo;SP;Sudeste;04553-902;11.895.578;-23.6192800094;-46.7137550031;2662.0;3550308.0;10/10/2025
petz;Petz Bangu Shopping;Rua Fonseca;Bangu;Rio de Janeiro;RJ;Sudeste;21820-005;6.729.894;-22.8819709;-43.465515;2490.0;3304557.0;10/10/2025
petz;Petz Barra Américas;Avenida das Américas;Barra da Tijuca;Rio de Janeiro;RJ;Sudeste;22793-080;6.729.894;-23.0141759;-43.4664789;2490.0;3304557.0;10/10/2025
petz;Petz Barreiro;Avenida Sinfrônio Brochado;Barreiro;Belo Horizonte;MG;Sudeste;30640-000;2.416.339;-19.9768558;-44.0195832;2001.0;3106200.0;10/10/2025
petz;Petz Bauru;Rua Rubens Pagani;Jardim Estoril IV;Bauru;SP;Sudeste;17016-210;391.740;-22.314459;-49.0586951;2662.0;3506003.0;10/10/2025
petz;Petz Belém;Avenida Nazaré;Nazaré;Belém;PA;Norte;66035-445;1.398.531;-1.454061;-48.4812248;1344.0;1501402.0;10/10/2025
petz;Petz Belford Roxo;Avenida Prefeito Jorge Júlio Costa dos Santos;Centro;Belford Roxo;RJ;Sudeste;26130-010;518.263;-22.7645391;-43.3996264;2490.0;3300456.0;10/10/2025
petz;Petz Bento Gonçalves;R. Fortaleza, 362;Botafogo;Bento Gonçalves;RS;Sul;95700-000;127.775;;;2608.0;4302105.0;10/10/2025
petz;Petz BestCenter Jacareí;Rua Barão de Jacareí;Centro;Jacareí;SP;Sudeste;12308-000;249.968;-23.2987827;-45.9662542;2662.0;3524402.0;10/10/2025
petz;Petz Betim;Avenida Juiz Marco Túlio Isaac;Jardim das Alterosas 1ª Seção;Betim;MG;Sudeste;32671-072;429.236;-19.9673078;-44.2011904;2001.0;3106705.0;10/10/2025
petz;Petz Blumenau;Rua São Paulo;Itoupava Seca;Blumenau;SC;Sul;89030-001;380.597;-26.919;-49.0579250549;2601.0;4202404.0;10/10/2025
petz;Petz Boa Viagem;Avenida Boa Viagem;Boa Viagem;Recife;PE;Nordeste;51020-000;1.587.707;-8.1099616;-34.8891379;1453.0;2611606.0;10/10/2025
petz;Petz Bosque Maia;Avenida Paulo Faccini;Macedo;Guarulhos;SP;Sudeste;07111-000;1.345.364;-23.4836100077;-46.533;2662.0;3518800.0;10/10/2025
petz;Petz Botafogo;Rua General Polidoro;Botafogo;Rio de Janeiro;RJ;Sudeste;22280-004;6.729.894;-22.9511149;-43.1809269;2490.0;3304557.0;10/10/2025
petz;Petz Botucatu;Avenida Doutor Vital Brasil;Vila São Lúcio;Botucatu;SP;Sudeste;18603-193;150.442;-22.8841808;-48.4441654;2662.0;3507506.0;10/10/2025
petz;Petz Brasília Asa Norte;Setor STN;Asa Norte;Brasília;DF;Centro-Oeste;70770-100;2.982.818;-15.7333775;-47.8970566;3444.0;5300108.0;10/10/2025
petz;Petz Brasília Epia;Setor de Postos e Motéis Sul I;Setor de Postos e Motéis Sul (Núcleo Bandeirante);Brasília;DF;Centro-Oeste;71738-010;2.982.818;-15.8711088;-47.9709785;3444.0;5300108.0;10/10/2025
petz;Petz Brasília Jardim Botânico;Quadra 1 Lote E;Setor Habitacional Jardim Botânico;Brasília;DF;Centro-Oeste;71681-025;2.982.818;-15.9064363;-47.8624914;3444.0;5300108.0;10/10/2025
petz;Petz Brasília SIA;Trecho SIA Trecho 17 Rua 03;Zona Industrial (Guará);Brasília;DF;Centro-Oeste;71200-207;2.982.818;-15.7786295;-47.9408608;3444.0;5300108.0;10/10/2025
petz;Petz Brasília W3 Norte;Quadra EQS 414/415;Asa Sul;Brasília;DF;Centro-Oeste;70297-400;2.982.818;-15.7906787664;-47.8930069733;3444.0;5300108.0;10/10/2025
petz;Petz Brusque;Rua Gustavo Schlosser;Centro II;Brusque;SC;Sul;88353-020;151.949;-27.0929599984;-48.9123385317;2601.0;4202909.0;10/10/2025
petz;Petz Bueno T63;Avenida T 63;Setor Bueno;Goiânia;GO;Centro-Oeste;74230-105;1.494.599;-16.7004399;-49.276539;2098.0;5208707.0;10/10/2025
petz;Petz Butantã;Avenida Professor Francisco Morato;Butantã;São Paulo;SP;Sudeste;05512-200;11.895.578;-23.9588500473;-46.1878288093;2662.0;3550308.0;10/10/2025
petz;Petz Cambuí;Avenida Doutor Moraes Salles;Jardim Guarani;Campinas;SP;Sudeste;13100-201;1.185.977;-22.9060289;-47.0461989;2662.0;3509502.0;10/10/2025
petz;Petz Campinas Norte Sul;Avenida José de Souza Campos;Nova Campinas;Campinas;SP;Sudeste;13092-123;1.185.977;-22.9040083;-47.0400589;2662.0;3509502.0;10/10/2025
petz;Petz Campo Grande;Avenida Afonso Pena;Chácara Cachoeira;Campo Grande;MS;Centro-Oeste;79040-010;954.537;-20.4643395;-54.579342;2169.0;5002704.0;10/10/2025
petz;Petz Campo Grande Rio;Rua João Barbosa de Morais;Campo Grande;Rio de Janeiro;RJ;Sudeste;23040-125;6.729.894;-22.9230245;-43.5495864;2490.0;3304557.0;10/10/2025
petz;Petz Canoas;Avenida Doutor Sezefredo Azambuja Vieira;Marechal Rondon;Canoas;RS;Sul;92020-020;359.554;-29.9175499937;-51.184519194;2608.0;4304606.0;10/10/2025
petz;Petz Caraguatatuba;Rua Vereador Antônio Cruz Arouca;Indaiá;Caraguatatuba;SP;Sudeste;11665-100;141.084;-23.6267599;-45.4234501;2662.0;3510500.0;10/10/2025
petz;Petz Carapicuíba;Avenida Inocêncio Seráfico;Vila Silva Ribeiro;Carapicuíba;SP;Sudeste;06380-021;398.462;-23.5378500086;-46.836;2662.0;3510609.0;10/10/2025
petz;Petz Carlos Berta;Rua Antônio Carlos Berta;Jardim Europa;Porto Alegre;RS;Sul;91340-020;1.389.322;-30.033;-51.279379889;2608.0;4314902.0;10/10/2025
petz;Petz Carlos Luz;Avenida Presidente Carlos Luz;Caiçaras;Belo Horizonte;MG;Sudeste;31230-010;2.416.339;-19.9012987;-43.9667394;2001.0;3106200.0;10/10/2025
petz;Petz Carrefour Anchieta;Via Anchieta, 3398;Vila Vermelha;São Paulo;SP;Sudeste;04246-900;11.895.578;-23.4902199938;-46.5729713249;2662.0;3550308.0;10/10/2025
petz;Petz Carrefour Imigrantes;Rua Alfredo de Salles Oliveira Netto;Vila do Bosque;São Paulo;SP;Sudeste;04147-020;11.895.578;-23.3060799704;-46.636;2662.0;3550308.0;10/10/2025
petz;Petz Carrefour Manilha;Rua Oliveira Botelho;Neves (Neves);São Gonçalo;RJ;Sudeste;24425-005;960.652;-22.8544152;-43.0977581;2490.0;3304904.0;10/10/2025
petz;Petz Carrefour Ribeirão Shopping;Avenida Coronel Fernando Ferreira Leite;Jardim Califórnia;Ribeirão Preto;SP;Sudeste;14026-020;728.400;-21.2041684;-47.8255301;2662.0;3543402.0;10/10/2025
petz;Petz Carrefour São Caetano;Avenida do Estado;Prosperidade;São Caetano do Sul;SP;Sudeste;09550-400;172.109;-23.6198499977;-46.5544381091;2662.0;3548807.0;10/10/2025
petz;Petz Carrefour Tietê;Avenida Morvan Dias de Figueiredo 3177;Vila Guilherme;São Paulo;SP;Sudeste;02063-902;11.895.578;-23.548;-46.6583840199;2662.0;3550308.0;10/10/2025
petz;Petz Cascavel;Avenida Brasil;Centro;Cascavel;PR;Sul;85812-000;364.104;-24.956;-53.4629414822;2482.0;4104808.0;10/10/2025
petz;Petz Castelo;Av. Pres. Tancredo Neves, 3005;Paquetá;Belo Horizonte;MG;Sudeste;30840-535;2.416.339;;;2001.0;3106200.0;10/10/2025
petz;Petz Catuai Londrina;Rodovia Mabio Gonçalves Palhano;Gleba Fazenda Palhano;Londrina;PR;Sul;86055-585;577.318;-23.31;-51.1395782472;2482.0;4113700.0;10/10/2025
petz;Petz Cavalhada;Avenida Eduardo Prado;Cavalhada;Porto Alegre;RS;Sul;91751-000;1.389.322;-30.033;-51.1583731786;2608.0;4314902.0;10/10/2025
petz;Petz Caxias do Sul;Avenida Ruben Bento Alves;Cinqüentenário;Caxias do Sul;RS;Sul;95012-393;479.256;-29.1745107;-51.207829;2608.0;4305108.0;10/10/2025
petz;Petz Ceilândia;Quadra Q 1;Setor de Desenvolvimento Econômico (Taguatinga);Brasília;DF;Centro-Oeste;72145-100;2.982.818;-15.8096826;-48.0897558;3444.0;5300108.0;10/10/2025
petz;Petz Center Minas;Avenida Pastor Anselmo Silvestre;Dom Joaquim;Belo Horizonte;MG;Sudeste;31170-678;2.416.339;-19.8790939;-43.9177407;2001.0;3106200.0;10/10/2025
petz;Petz Center Shopping Uberlândia;Avenida João Naves de Ávila;Tibery;Uberlândia;MG;Sudeste;38405-140;754.954;-18.9011105;-48.2511641;2001.0;3170206.0;10/10/2025
petz;Petz Cerro Corá;Rua Cerro Corá;Vila Romana;São Paulo;SP;Sudeste;05061-300;11.895.578;-23.1801699588;-47.037243297;2662.0;3550308.0;10/10/2025
petz;Petz Chapecó;Avenida Fernando Machado - D;Centro;Chapecó;SC;Sul;89802-111;275.959;-27.0947399993;-52.6194153421;2601.0;4204202.0;10/10/2025
petz;Petz Cidade Jardim;Avenida dos Tajurás;Cidade Jardim;São Paulo;SP;Sudeste;05670-000;11.895.578;-23.1187899568;-46.1678010127;2662.0;3550308.0;10/10/2025
petz;Petz Congonhas;Avenida Moreira Guimarães;Indianópolis;São Paulo;SP;Sudeste;04074-030;11.895.578;-23.7813700242;-46.3814309126;2662.0;3550308.0;10/10/2025
petz;Petz Contagem;Avenida Babita Camargos;Cidade Industrial;Contagem;MG;Sudeste;32210-180;649.975;-19.9511138;-44.0258233;2001.0;3118601.0;10/10/2025
petz;Petz Contagem João Cesar;Avenida João César de Oliveira;Beatriz;Contagem;MG;Sudeste;32040-000;649.975;-19.9249966;-44.0609614;2001.0;3118601.0;10/10/2025
petz;Petz Continente;Rua Martinho Boschetti;Picadas do Sul;São José;SC;Sul;88106-110;289.949;-27.6186000056;-48.628;2601.0;4216602.0;10/10/2025
petz;Petz Copacabana;Avenida Nossa Senhora de Copacabana;Copacabana;Rio de Janeiro;RJ;Sudeste;22070-012;6.729.894;-22.9697777;-43.1868592;2490.0;3304557.0;10/10/2025
petz;Petz Cotia;Rodovia Raposo Tavares;Lageadinho;Cotia;SP;Sudeste;06709-015;287.004;-23.5966199947;-46.9270538309;2662.0;3513009.0;10/10/2025
petz;Petz Criciúma;Avenida Centenário;Centro;Criciúma;SC;Sul;88801-001;225.281;-28.6803626913;-49.3671297486;2601.0;4204608.0;10/10/2025
petz;Petz Cristiano Machado;Rua José Vieira Muniz;Floramar;Belo Horizonte;MG;Sudeste;31742-005;2.416.339;-19.8307058;-43.9388814;2001.0;3106200.0;10/10/2025
petz;Petz Diadema;Avenida Fábio Eduardo Ramos Esquivel;Centro;Diadema;SP;Sudeste;09920-578;404.118;-23.6886100049;-46.6258500946;2662.0;3513801.0;10/10/2025
petz;Petz Diário de Notícias;Avenida Diário de Notícias;Cristal;Porto Alegre;RS;Sul;90810-080;1.389.322;-30.0504600069;-51.2098322109;2608.0;4314902.0;10/10/2025
petz;Petz Divinópolis;Rua Minas Gerais;Centro;Divinópolis;MG;Sudeste;35500-007;242.328;-20.1451261;-44.8916447;2001.0;3122306.0;10/10/2025
petz;Petz Djalma Batista;Avenida Djalma Batista;Chapada;Manaus;AM;Norte;69050-010;2.279.686;-3.0967957;-60.0288373;1238.0;1302603.0;10/10/2025
petz;Petz Dom Pedro;Avenida Guilherme Campos 500;Jardim Santa Genebra;Campinas;SP;Sudeste;13087-901;1.185.977;-22.9099384;-47.0626332;2662.0;3509502.0;10/10/2025
petz;Petz Dourados;Avenida Marcelino Pires;Jardim Caramuru;Dourados;MS;Centro-Oeste;79830-000;260.640;-22.223561;-54.8125486;2169.0;5003702.0;10/10/2025
petz;Petz Edgar Facó;Avenida General Edgar Facó;Vila Pereira Cerca;São Paulo;SP;Sudeste;02924-400;11.895.578;-23.548;-46.757050399;2662.0;3550308.0;10/10/2025
petz;Petz Enseada;Avenida Santa Maria;Enseada;Guarujá;SP;Sudeste;11440-110;294.973;-23.9869736;-46.2463403;2662.0;3518701.0;10/10/2025
petz;Petz Estação Goiânia;Avenida Goiás;Setor Central;Goiânia;GO;Centro-Oeste;74010-010;1.494.599;-16.6716683;-49.2562665;2098.0;5208707.0;10/10/2025
